[[{"fsq_id": "4e4bf5621838fe3c818e780e", "categories": [], "chains": [], "distance": 49, "geocodes": {"main": {"latitude": 48.305158, "longitude": 14.285047}}, "link": "/v3/places/4e4bf5621838fe3c818e780e", "location": {"country": "AT", "cross_street": "", "formatted_address": "Linz", "locality": "Linz", "region": "Ober\u00f6sterreich"}, "name": "Restaurant Bar Absolut!on", "related_places": {}, "timezone": "Europe/Vienna"}, {"fsq_id": "78a54586e46a4fde404084dd", "categories": [{"id": 13034, "name": "Caf\u00e9", "icon": {"prefix": "https://ss3.4sqi.net/img/categories_v2/food/cafe_", "suffix": ".png"}}, {"id": 13199, "name": "Indian Restaurant", "icon": {"prefix": "https://ss3.4sqi.net/img/categories_v2/food/indian_", "suffix": ".png"}}], "chains": [], "distance": 75, "geocodes": {"drop_off": {"latitude": 48.304985, "longitude": 14.284522}, "main": {"latitude": 48.304891, "longitude": 14.284415}, "roof": {"latitude": 48.304891, "longitude": 14.284415}}, "link": "/v3/places/78a54586e46a4fde404084dd", "location": {"address": "Altstadt 16", "country": "AT", "formatted_address": "Altstadt 16, 4020 Linz", "locality": "Linz", "postcode": "4020", "region": "Ober\u00f6sterreich"}, "name": "IKAAN Restaurant Bar Cafe", "related_places": {}}, {"fsq_id": "8fca4722a2274823ba76f20e", "categories": [{"id": 13065, "name": "Restaurant", "icon": {"prefix": "https://ss3.4sqi.net/img/categories_v2/food/default_", "suffix": ".png"}}], "chains": [], "distance": 139, "geocodes": {"drop_off": {"latitude": 48.30642, "longitude": 14.286043}, "main": {"latitude": 48.306419, "longitude": 14.286042}}, "link": "/v3/places/8fca4722a2274823ba76f20e", "location": {"address": "Hauptplatz 12", "country": "AT", "formatted_address": "Hauptplatz 12, 4020 Linz", "locality": "Linz", "postcode": "4020", "region": "Ober\u00f6sterreich"}, "name": "J. Leibetseder Restaurant- und BarbetriebsgmbH", "related_places": {}}, {"fsq_id": "4bf6cb6eb1a7a59319b9d65b", "categories": [{"id": 13099, "name": "Chinese Restaurant", "icon": {"prefix": "https://ss3.4sqi.net/img/categories_v2/food/asian_", "suffix": ".png"}}], "chains": [], "distance": 150, "geocodes": {"main": {"latitude": 48.30645, "longitude": 14.286628}, "roof": {"latitude": 48.30645, "longitude": 14.286628}}, "link": "/v3/places/4bf6cb6eb1a7a59319b9d65b", "location": {"address": "Hauptplatz 4", "country": "AT", "cross_street": "", "formatted_address": "Hauptplatz 4, 4020 Linz", "locality": "Linz", "postcode": "4020", "region": "Ober\u00f6sterreich"}, "name": "China-Restaurant Kim San", "related_places": {}, "timezone": "Europe/Vienna"}, {"fsq_id": "5b40a0caab2e4f78726f5de2", "categories": [{"id": 13065, "name": "Restaurant", "icon": {"prefix": "https://ss3.4sqi.net/img/categories_v2/food/default_", "suffix": ".png"}}], "chains": [], "distance": 168, "geocodes": {"drop_off": {"latitude": 48.304777, "longitude": 14.286542}, "main": {"latitude": 48.304685, "longitude": 14.28658}, "roof": {"latitude": 48.304685, "longitude": 14.28658}}, "link": "/v3/places/5b40a0caab2e4f78726f5de2", "location": {"address": "Klosterstr. 1", "country": "AT", "formatted_address": "Klosterstr. 1, 4020 Linz", "locality": "Linz", "postcode": "4020", "region": "Ober\u00f6sterreich"}, "name": "Restaurant Persia", "related_places": {}}, {"fsq_id": "13d129561f2146fca1e7f942", "categories": [{"id": 13065, "name": "Restaurant", "icon": {"prefix": "https://ss3.4sqi.net/img/categories_v2/food/default_", "suffix": ".png"}}], "chains": [], "distance": 168, "geocodes": {"main": {"latitude": 48.304685, "longitude": 14.28658}, "roof": {"latitude": 48.304685, "longitude": 14.28658}}, "link": "/v3/places/13d129561f2146fca1e7f942", "location": {"address": "Klosterstr. 1", "country": "AT", "formatted_address": "Klosterstr. 1, 4020 Linz", "locality": "Linz", "postcode": "4020", "region": "Ober\u00f6sterreich"}, "name": "China-Restaurant Singapore", "related_places": {}}, {"fsq_id": "1a9ea5b5ffe1466d2576e343", "categories": [{"id": 13065, "name": "Restaurant", "icon": {"prefix": "https://ss3.4sqi.net/img/categories_v2/food/default_", "suffix": ".png"}}], "chains": [], "distance": 175, "geocodes": {"main": {"latitude": 48.306501, "longitude": 14.286576}, "roof": {"latitude": 48.306501, "longitude": 14.286576}}, "link": "/v3/places/1a9ea5b5ffe1466d2576e343", "location": {"country": "AT", "formatted_address": "4020 Linz", "locality": "Linz", "postcode": "4020", "region": "Ober\u00f6sterreich"}, "name": "Cafe Paradiso, Das vegetarische Restaurant Bernhart + Braun", "related_places": {}}, {"fsq_id": "c1893a2a43574d511fc27310", "categories": [{"id": 19015, "name": "Inn", "icon": {"prefix": "https://ss3.4sqi.net/img/categories_v2/travel/hotel_", "suffix": ".png"}}], "chains": [], "distance": 180, "geocodes": {"main": {"latitude": 48.306455, "longitude": 14.286725}, "roof": {"latitude": 48.306455, "longitude": 14.286725}}, "link": "/v3/places/c1893a2a43574d511fc27310", "location": {"address": "Hauptplatz 3", "country": "AT", "formatted_address": "Hauptplatz 3, 4020 Linz", "locality": "Linz", "postcode": "4020", "region": "Ober\u00f6sterreich"}, "name": "Blinis Cafe Restaurant Iris Fabiane Gastronomiebetriebs GmbH & Co", "related_places": {}}, {"fsq_id": "f08ac10d2eef4887995ae592", "categories": [{"id": 13012, "name": "Hookah Bar", "icon": {"prefix": "https://ss3.4sqi.net/img/categories_v2/nightlife/hookahbar_", "suffix": ".png"}}, {"id": 13035, "name": "Coffee Shop", "icon": {"prefix": "https://ss3.4sqi.net/img/categories_v2/food/coffeeshop_", "suffix": ".png"}}, {"id": 13145, "name": "Fast Food Restaurant", "icon": {"prefix": "https://ss3.4sqi.net/img/categories_v2/food/fastfood_", "suffix": ".png"}}], "chains": [], "distance": 185, "geocodes": {"main": {"latitude": 48.304812, "longitude": 14.286964}, "roof": {"latitude": 48.304812, "longitude": 14.286964}}, "link": "/v3/places/f08ac10d2eef4887995ae592", "location": {"address": "Hauptplatz 25", "country": "AT", "formatted_address": "Hauptplatz 25, 4020 Linz", "locality": "Linz", "postcode": "4020", "region": "Ober\u00f6sterreich"}, "name": "Restaurant Die Drei Etagen", "related_places": {}}, {"fsq_id": "4b5b4dfff964a52026f328e3", "categories": [{"id": 13000, "name": "Dining and Drinking", "icon": {"prefix": "https://ss3.4sqi.net/img/categories_v2/food/default_", "suffix": ".png"}}], "chains": [], "distance": 195, "geocodes": {"main": {"latitude": 48.30645, "longitude": 14.286628}, "roof": {"latitude": 48.30645, "longitude": 14.286628}}, "link": "/v3/places/4b5b4dfff964a52026f328e3", "location": {"address": "Hauptplatz 4", "country": "AT", "formatted_address": "Hauptplatz 4, 4020 Linz", "locality": "Linz", "postcode": "4020", "region": "Ober\u00f6sterreich"}, "name": "Restaurant-Cafe Alte Welt", "related_places": {}, "timezone": "Europe/Vienna"}], [{"fsq_id": "97575b6208da4f1f105cac5d", "categories": [{"id": 13034, "name": "Caf\u00e9", "icon": {"prefix": "https://ss3.4sqi.net/img/categories_v2/food/cafe_", "suffix": ".png"}}, {"id": 13035, "name": "Coffee Shop", "icon": {"prefix": "https://ss3.4sqi.net/img/categories_v2/food/coffeeshop_", "suffix": ".png"}}, {"id": 13065, "name": "Restaurant", "icon": {"prefix": "https://ss3.4sqi.net/img/categories_v2/food/default_", "suffix": ".png"}}], "chains": [], "distance": 47, "geocodes": {"main": {"latitude": 48.295204, "longitude": 14.293178}, "roof": {"latitude": 48.295204, "longitude": 14.293178}}, "link": "/v3/places/97575b6208da4f1f105cac5d", "location": {"address": "Landstr. 119", "country": "AT", "formatted_address": "Landstr. 119, 4020 Linz", "locality": "Linz", "postcode": "4020", "region": "Ober\u00f6sterreich"}, "name": "Lebensfreude Cafe-Restaurant", "related_places": {}}, {"fsq_id": "bfb867b4b4374f76db8c8566", "categories": [{"id": 13030, "name": "Buffet", "icon": {"prefix": "https://ss3.4sqi.net/img/categories_v2/food/default_", "suffix": ".png"}}], "chains": [], "distance": 105, "geocodes": {"main": {"latitude": 48.294774, "longitude": 14.294131}, "roof": {"latitude": 48.294774, "longitude": 14.294131}}, "link": "/v3/places/bfb867b4b4374f76db8c8566", "location": {"address": "Blumauer Str. 2", "country": "AT", "formatted_address": "Blumauer Str. 2, 4020 Linz", "locality": "Linz", "postcode": "4020", "region": "Ober\u00f6sterreich"}, "name": "Restaurant Kummerkasten - Steger Elfriede", "related_places": {}}, {"fsq_id": "8064b19106ab40cce38f78cd", "categories": [{"id": 13027, "name": "Bistro", "icon": {"prefix": "https://ss3.4sqi.net/img/categories_v2/food/default_", "suffix": ".png"}}], "chains": [], "distance": 137, "geocodes": {"drop_off": {"latitude": 48.295223, "longitude": 14.294468}, "main": {"latitude": 48.295378, "longitude": 14.29444}, "roof": {"latitude": 48.295378, "longitude": 14.29444}}, "link": "/v3/places/8064b19106ab40cce38f78cd", "location": {"address": "Blumauerstr. 9", "country": "AT", "formatted_address": "Blumauerstr. 9, 4020 Linz", "locality": "Linz", "postcode": "4020", "region": "Ober\u00f6sterreich"}, "name": "City Wok Cafe, Restaurant & Bar Yifeng MA", "related_places": {}}, {"fsq_id": "fc225bf95b874ef10e4013ba", "categories": [{"id": 13065, "name": "Restaurant", "icon": {"prefix": "https://ss3.4sqi.net/img/categories_v2/food/default_", "suffix": ".png"}}], "chains": [], "distance": 141, "geocodes": {"main": {"latitude": 48.293642, "longitude": 14.292922}, "roof": {"latitude": 48.293642, "longitude": 14.292922}}, "link": "/v3/places/fc225bf95b874ef10e4013ba", "location": {"address": "Bahnhofstr. 3", "country": "AT", "formatted_address": "Bahnhofstr. 3, 4020 Linz", "locality": "Linz", "postcode": "4020", "region": "Ober\u00f6sterreich"}, "name": "Restaurant Drehscheibe", "related_places": {}}, {"fsq_id": "83a9c5e249df4e619fc325f6", "categories": [{"id": 13065, "name": "Restaurant", "icon": {"prefix": "https://ss3.4sqi.net/img/categories_v2/food/default_", "suffix": ".png"}}], "chains": [], "distance": 148, "geocodes": {"drop_off": {"latitude": 48.296169, "longitude": 14.292001}, "main": {"latitude": 48.296157, "longitude": 14.291999}}, "link": "/v3/places/83a9c5e249df4e619fc325f6", "location": {"address": "Landstr. 17- 25/ P", "country": "AT", "formatted_address": "Landstr. 17- 25/ P, 4020 Linz", "locality": "Linz", "postcode": "4020", "region": "Ober\u00f6sterreich"}, "name": "MATADOO Restaurant- Betriebs", "related_places": {}}, {"fsq_id": "4c4551278c1f20a1ada73d99", "categories": [{"id": 13034, "name": "Caf\u00e9", "icon": {"prefix": "https://ss3.4sqi.net/img/categories_v2/food/cafe_", "suffix": ".png"}}, {"id": 13074, "name": "Austrian Restaurant", "icon": {"prefix": "https://ss3.4sqi.net/img/categories_v2/food/austrian_", "suffix": ".png"}}], "chains": [], "distance": 193, "geocodes": {"main": {"latitude": 48.295825, "longitude": 14.294806}, "roof": {"latitude": 48.295825, "longitude": 14.294806}}, "link": "/v3/places/4c4551278c1f20a1ada73d99", "location": {"address": "S\u00fcdtiroler Str. 31", "country": "AT", "formatted_address": "S\u00fcdtiroler Str. 31, 4020 Linz", "locality": "Linz", "postcode": "4020", "region": "Ober\u00f6sterreich"}, "name": "Kontrast Restaurant", "related_places": {}, "timezone": "Europe/Vienna"}, {"fsq_id": "465aff3d23ad48086282a587", "categories": [{"id": 13065, "name": "Restaurant", "icon": {"prefix": "https://ss3.4sqi.net/img/categories_v2/food/default_", "suffix": ".png"}}], "chains": [], "distance": 253, "geocodes": {"drop_off": {"latitude": 48.296007, "longitude": 14.289683}, "main": {"latitude": 48.29615, "longitude": 14.289847}, "roof": {"latitude": 48.29615, "longitude": 14.289847}}, "link": "/v3/places/465aff3d23ad48086282a587", "location": {"address": "Volksgartenstr. 19", "country": "AT", "formatted_address": "Volksgartenstr. 19, 4020 Linz", "locality": "Linz", "postcode": "4020", "region": "Ober\u00f6sterreich"}, "name": "Restaurant Baub\u00f6ck", "related_places": {}}, {"fsq_id": "57dc71e1cd1077642490974c", "categories": [{"id": 13000, "name": "Dining and Drinking", "icon": {"prefix": "https://ss3.4sqi.net/img/categories_v2/food/default_", "suffix": ".png"}}], "chains": [], "distance": 421, "geocodes": {"main": {"latitude": 48.298439, "longitude": 14.290632}}, "link": "/v3/places/57dc71e1cd1077642490974c", "location": {"address": "Rainerstr. 2- 4", "country": "AT", "cross_street": "", "formatted_address": "Rainerstr. 2- 4, 4020 Linz", "locality": "Linz", "postcode": "4020", "region": "Ober\u00f6sterreich"}, "name": "Cuisino - das Restaurant im Casino Linz", "related_places": {"parent": {"fsq_id": "4b991caff964a5201b6235e3", "name": "Casino Linz"}}, "timezone": "Europe/Vienna"}, {"fsq_id": "4d7a20d678be594162dbaf70", "categories": [{"id": 13000, "name": "Dining and Drinking", "icon": {"prefix": "https://ss3.4sqi.net/img/categories_v2/food/default_", "suffix": ".png"}}], "chains": [], "distance": 437, "geocodes": {"drop_off": {"latitude": 48.298029, "longitude": 14.289199}, "main": {"latitude": 48.298047, "longitude": 14.289349}, "roof": {"latitude": 48.298047, "longitude": 14.289349}}, "link": "/v3/places/4d7a20d678be594162dbaf70", "location": {"address": "Gesellenhausstr. 7", "country": "AT", "formatted_address": "Gesellenhausstr. 7, 4020 Linz", "locality": "Linz", "postcode": "4020", "region": "Ober\u00f6sterreich"}, "name": "Kolping Restaurant", "related_places": {}, "timezone": "Europe/Vienna"}, {"fsq_id": "b12ecfdb84104eae1a805559", "categories": [{"id": 13065, "name": "Restaurant", "icon": {"prefix": "https://ss3.4sqi.net/img/categories_v2/food/default_", "suffix": ".png"}}], "chains": [], "distance": 455, "geocodes": {"drop_off": {"latitude": 48.298598, "longitude": 14.290558}, "main": {"latitude": 48.298753, "longitude": 14.290582}, "roof": {"latitude": 48.298753, "longitude": 14.290582}}, "link": "/v3/places/b12ecfdb84104eae1a805559", "location": {"address": "Langgasse 6", "country": "AT", "formatted_address": "Langgasse 6, 4020 Linz", "locality": "Linz", "postcode": "4020", "region": "Ober\u00f6sterreich"}, "name": "Restaurant Weinhandel Josefine Pichler Inh Max Grisenti", "related_places": {}}], [{"fsq_id": "cc329f76b028481766aa8179", "categories": [{"id": 13065, "name": "Restaurant", "icon": {"prefix": "https://ss3.4sqi.net/img/categories_v2/food/default_", "suffix": ".png"}}], "chains": [], "distance": 103, "geocodes": {"main": {"latitude": 48.290282, "longitude": 14.291007}, "roof": {"latitude": 48.290282, "longitude": 14.291007}}, "link": "/v3/places/cc329f76b028481766aa8179", "location": {"address": "Bahnhofplatz 3- 6", "country": "AT", "formatted_address": "Bahnhofplatz 3- 6, 4020 Linz", "locality": "Linz", "postcode": "4020", "region": "Ober\u00f6sterreich"}, "name": "MATADOO Restaurant", "related_places": {}}, {"fsq_id": "66e7bcfeadbd40d65996b9cd", "categories": [{"id": 19000, "name": "Travel and Transportation", "icon": {"prefix": "https://ss3.4sqi.net/img/categories_v2/travel/default_", "suffix": ".png"}}], "chains": [], "distance": 157, "geocodes": {"main": {"latitude": 48.290772, "longitude": 14.289169}, "roof": {"latitude": 48.290772, "longitude": 14.289169}}, "link": "/v3/places/66e7bcfeadbd40d65996b9cd", "location": {"address": "K\u00e4rntner Str. 18- 20", "country": "AT", "formatted_address": "K\u00e4rntner Str. 18- 20, 4020 Linz", "locality": "Linz", "postcode": "4020", "region": "Ober\u00f6sterreich"}, "name": "Restaurante Hotel Ibis Linz", "related_places": {}}, {"fsq_id": "504a57bcd63efbbfd051a7d2", "categories": [{"id": 13072, "name": "Asian Restaurant", "icon": {"prefix": "https://ss3.4sqi.net/img/categories_v2/food/asian_", "suffix": ".png"}}], "chains": [], "distance": 192, "geocodes": {"main": {"latitude": 48.290782, "longitude": 14.288337}, "roof": {"latitude": 48.290782, "longitude": 14.288337}}, "link": "/v3/places/504a57bcd63efbbfd051a7d2", "location": {"address": "K\u00e4rntnerstr. 26", "country": "AT", "cross_street": "im Wissensturm", "formatted_address": "K\u00e4rntnerstr. 26 (im Wissensturm), 4020 Linz", "locality": "Linz", "postcode": "4020", "region": "Ober\u00f6sterreich"}, "name": "Niu Restaurant", "related_places": {}, "timezone": "Europe/Vienna"}, {"fsq_id": "fc225bf95b874ef10e4013ba", "categories": [{"id": 13065, "name": "Restaurant", "icon": {"prefix": "https://ss3.4sqi.net/img/categories_v2/food/default_", "suffix": ".png"}}], "chains": [], "distance": 299, "geocodes": {"main": {"latitude": 48.293642, "longitude": 14.292922}, "roof": {"latitude": 48.293642, "longitude": 14.292922}}, "link": "/v3/places/fc225bf95b874ef10e4013ba", "location": {"address": "Bahnhofstr. 3", "country": "AT", "formatted_address": "Bahnhofstr. 3, 4020 Linz", "locality": "Linz", "postcode": "4020", "region": "Ober\u00f6sterreich"}, "name": "Restaurant Drehscheibe", "related_places": {}}, {"fsq_id": "4c7682e966be6dcb5549c30f", "categories": [{"id": 12013, "name": "College and University", "icon": {"prefix": "https://ss3.4sqi.net/img/categories_v2/education/default_", "suffix": ".png"}}], "chains": [], "distance": 433, "geocodes": {"main": {"latitude": 48.290835, "longitude": 14.285301}, "roof": {"latitude": 48.290835, "longitude": 14.285301}}, "link": "/v3/places/4c7682e966be6dcb5549c30f", "location": {"address": "Bergschl\u00f6\u00dflgasse 1", "country": "AT", "formatted_address": "Bergschl\u00f6\u00dflgasse 1, 4020 Linz", "locality": "Linz", "postcode": "4020", "region": "Ober\u00f6sterreich"}, "name": "LIMAK Austrian Business School", "related_places": {}, "timezone": "Europe/Vienna"}, {"fsq_id": "bfb867b4b4374f76db8c8566", "categories": [{"id": 13030, "name": "Buffet", "icon": {"prefix": "https://ss3.4sqi.net/img/categories_v2/food/default_", "suffix": ".png"}}], "chains": [], "distance": 452, "geocodes": {"main": {"latitude": 48.294774, "longitude": 14.294131}, "roof": {"latitude": 48.294774, "longitude": 14.294131}}, "link": "/v3/places/bfb867b4b4374f76db8c8566", "location": {"address": "Blumauer Str. 2", "country": "AT", "formatted_address": "Blumauer Str. 2, 4020 Linz", "locality": "Linz", "postcode": "4020", "region": "Ober\u00f6sterreich"}, "name": "Restaurant Kummerkasten - Steger Elfriede", "related_places": {}}, {"fsq_id": "97575b6208da4f1f105cac5d", "categories": [{"id": 13034, "name": "Caf\u00e9", "icon": {"prefix": "https://ss3.4sqi.net/img/categories_v2/food/cafe_", "suffix": ".png"}}, {"id": 13035, "name": "Coffee Shop", "icon": {"prefix": "https://ss3.4sqi.net/img/categories_v2/food/coffeeshop_", "suffix": ".png"}}, {"id": 13065, "name": "Restaurant", "icon": {"prefix": "https://ss3.4sqi.net/img/categories_v2/food/default_", "suffix": ".png"}}], "chains": [], "distance": 468, "geocodes": {"main": {"latitude": 48.295204, "longitude": 14.293178}, "roof": {"latitude": 48.295204, "longitude": 14.293178}}, "link": "/v3/places/97575b6208da4f1f105cac5d", "location": {"address": "Landstr. 119", "country": "AT", "formatted_address": "Landstr. 119, 4020 Linz", "locality": "Linz", "postcode": "4020", "region": "Ober\u00f6sterreich"}, "name": "Lebensfreude Cafe-Restaurant", "related_places": {}}, {"fsq_id": "8064b19106ab40cce38f78cd", "categories": [{"id": 13027, "name": "Bistro", "icon": {"prefix": "https://ss3.4sqi.net/img/categories_v2/food/default_", "suffix": ".png"}}], "chains": [], "distance": 522, "geocodes": {"drop_off": {"latitude": 48.295223, "longitude": 14.294468}, "main": {"latitude": 48.295378, "longitude": 14.29444}, "roof": {"latitude": 48.295378, "longitude": 14.29444}}, "link": "/v3/places/8064b19106ab40cce38f78cd", "location": {"address": "Blumauerstr. 9", "country": "AT", "formatted_address": "Blumauerstr. 9, 4020 Linz", "locality": "Linz", "postcode": "4020", "region": "Ober\u00f6sterreich"}, "name": "City Wok Cafe, Restaurant & Bar Yifeng MA", "related_places": {}}, {"fsq_id": "83a9c5e249df4e619fc325f6", "categories": [{"id": 13065, "name": "Restaurant", "icon": {"prefix": "https://ss3.4sqi.net/img/categories_v2/food/default_", "suffix": ".png"}}], "chains": [], "distance": 554, "geocodes": {"drop_off": {"latitude": 48.296169, "longitude": 14.292001}, "main": {"latitude": 48.296157, "longitude": 14.291999}}, "link": "/v3/places/83a9c5e249df4e619fc325f6", "location": {"address": "Landstr. 17- 25/ P", "country": "AT", "formatted_address": "Landstr. 17- 25/ P, 4020 Linz", "locality": "Linz", "postcode": "4020", "region": "Ober\u00f6sterreich"}, "name": "MATADOO Restaurant- Betriebs", "related_places": {}}, {"fsq_id": "465aff3d23ad48086282a587", "categories": [{"id": 13065, "name": "Restaurant", "icon": {"prefix": "https://ss3.4sqi.net/img/categories_v2/food/default_", "suffix": ".png"}}], "chains": [], "distance": 559, "geocodes": {"drop_off": {"latitude": 48.296007, "longitude": 14.289683}, "main": {"latitude": 48.29615, "longitude": 14.289847}, "roof": {"latitude": 48.29615, "longitude": 14.289847}}, "link": "/v3/places/465aff3d23ad48086282a587", "location": {"address": "Volksgartenstr. 19", "country": "AT", "formatted_address": "Volksgartenstr. 19, 4020 Linz", "locality": "Linz", "postcode": "4020", "region": "Ober\u00f6sterreich"}, "name": "Restaurant Baub\u00f6ck", "related_places": {}}], [{"fsq_id": "5030083fd7204bd1d0dabbd8", "categories": [{"id": 12053, "name": "Language School", "icon": {"prefix": "https://ss3.4sqi.net/img/categories_v2/education/default_", "suffix": ".png"}}], "chains": [], "distance": 40, "geocodes": {"main": {"latitude": 48.302891, "longitude": 14.289029}, "roof": {"latitude": 48.302891, "longitude": 14.289029}}, "link": "/v3/places/5030083fd7204bd1d0dabbd8", "location": {"address": "Landstr. 24", "country": "AT", "formatted_address": "Landstr. 24, 4020 Linz", "locality": "Linz", "postcode": "4020", "region": "Ober\u00f6sterreich"}, "name": "Inlingua Sprachschule - International School of Languages", "related_places": {}}, {"fsq_id": "12fa2330585b4d0639cd39a9", "categories": [{"id": 13065, "name": "Restaurant", "icon": {"prefix": "https://ss3.4sqi.net/img/categories_v2/food/default_", "suffix": ".png"}}], "chains": [], "distance": 79, "geocodes": {"drop_off": {"latitude": 48.303693, "longitude": 14.288494}, "main": {"latitude": 48.303606, "longitude": 14.288402}, "roof": {"latitude": 48.303606, "longitude": 14.288402}}, "link": "/v3/places/12fa2330585b4d0639cd39a9", "location": {"address": "Landstr. 12", "country": "AT", "formatted_address": "Landstr. 12, 4020 Linz", "locality": "Linz", "postcode": "4020", "region": "Ober\u00f6sterreich"}, "name": "Restaurant s'Ringelg'spiel - Platzl's Schmankerl Reigen", "related_places": {}}, {"fsq_id": "d3a37bdec1fd412d299808dd", "categories": [{"id": 13065, "name": "Restaurant", "icon": {"prefix": "https://ss3.4sqi.net/img/categories_v2/food/default_", "suffix": ".png"}}], "chains": [], "distance": 79, "geocodes": {"main": {"latitude": 48.303911, "longitude": 14.289119}, "roof": {"latitude": 48.303911, "longitude": 14.289119}}, "link": "/v3/places/d3a37bdec1fd412d299808dd", "location": {"address": "Landstr. 13", "country": "AT", "formatted_address": "Landstr. 13, 4020 Linz", "locality": "Linz", "postcode": "4020", "region": "Ober\u00f6sterreich"}, "name": "Sakura Japan-Restaurant", "related_places": {}}, {"fsq_id": "5239e2f4498e0583c9696881", "categories": [{"id": 13352, "name": "Thai Restaurant", "icon": {"prefix": "https://ss3.4sqi.net/img/categories_v2/food/thai_", "suffix": ".png"}}], "chains": [], "distance": 109, "geocodes": {"drop_off": {"latitude": 48.303922, "longitude": 14.29026}, "main": {"latitude": 48.304034, "longitude": 14.290433}, "roof": {"latitude": 48.304034, "longitude": 14.290433}}, "link": "/v3/places/5239e2f4498e0583c9696881", "location": {"address": "Marienstr. 11", "country": "AT", "cross_street": "", "formatted_address": "Marienstr. 11, 4020 Linz", "locality": "Linz", "postcode": "4020", "region": "Ober\u00f6sterreich"}, "name": "Coconut Thai Restaurant", "related_places": {}, "timezone": "Europe/Vienna"}, {"fsq_id": "4e4aa080e4cd4fd73006b21a", "categories": [{"id": 13074, "name": "Austrian Restaurant", "icon": {"prefix": "https://ss3.4sqi.net/img/categories_v2/food/austrian_", "suffix": ".png"}}], "chains": [], "distance": 131, "geocodes": {"main": {"latitude": 48.302212, "longitude": 14.289312}, "roof": {"latitude": 48.302212, "longitude": 14.289312}}, "link": "/v3/places/4e4aa080e4cd4fd73006b21a", "location": {"address": "Landstr. 30", "country": "AT", "formatted_address": "Landstr. 30, 4020 Linz", "locality": "Linz", "postcode": "4020", "region": "Ober\u00f6sterreich"}, "name": "Restaurant Klosterhof", "related_places": {"children": []}, "timezone": "Europe/Vienna"}, {"fsq_id": "cd6b7398db9f4d6faafc6693", "categories": [{"id": 13065, "name": "Restaurant", "icon": {"prefix": "https://ss3.4sqi.net/img/categories_v2/food/default_", "suffix": ".png"}}], "chains": [], "distance": 145, "geocodes": {"drop_off": {"latitude": 48.304537, "longitude": 14.289861}, "main": {"latitude": 48.30448, "longitude": 14.289772}, "roof": {"latitude": 48.30448, "longitude": 14.289772}}, "link": "/v3/places/cd6b7398db9f4d6faafc6693", "location": {"address": "Marienstr. 5", "country": "AT", "formatted_address": "Marienstr. 5, 4020 Linz", "locality": "Linz", "postcode": "4020", "region": "Ober\u00f6sterreich"}, "name": "Goldener Drachen China- Restaurant Dun Shu FONG", "related_places": {}}, {"fsq_id": "57651e04498ec3d136fdee7c", "categories": [{"id": 13064, "name": "Pizzeria", "icon": {"prefix": "https://ss3.4sqi.net/img/categories_v2/food/pizza_", "suffix": ".png"}}, {"id": 13236, "name": "Italian Restaurant", "icon": {"prefix": "https://ss3.4sqi.net/img/categories_v2/food/italian_", "suffix": ".png"}}, {"id": 13303, "name": "Mexican Restaurant", "icon": {"prefix": "https://ss3.4sqi.net/img/categories_v2/food/mexican_", "suffix": ".png"}}], "chains": [], "distance": 156, "geocodes": {"main": {"latitude": 48.302786, "longitude": 14.29109}, "roof": {"latitude": 48.302786, "longitude": 14.29109}}, "link": "/v3/places/57651e04498ec3d136fdee7c", "location": {"address": "OK Platz 1a", "country": "AT", "cross_street": "", "formatted_address": "OK Platz 1a, 4020 Linz", "locality": "Linz", "postcode": "4020", "region": "Ober\u00f6sterreich"}, "name": "El Paso Restaurant Pizzeria", "related_places": {}, "timezone": "Europe/Vienna"}, {"fsq_id": "8f7ebf7ead5e4af9cd759f32", "categories": [{"id": 13065, "name": "Restaurant", "icon": {"prefix": "https://ss3.4sqi.net/img/categories_v2/food/default_", "suffix": ".png"}}], "chains": [], "distance": 199, "geocodes": {"main": {"latitude": 48.304401, "longitude": 14.287281}, "roof": {"latitude": 48.304401, "longitude": 14.287281}}, "link": "/v3/places/8f7ebf7ead5e4af9cd759f32", "location": {"address": "Promenade 16", "country": "AT", "formatted_address": "Promenade 16, 4020 Linz", "locality": "Linz", "postcode": "4020", "region": "Ober\u00f6sterreich"}, "name": "Restaurant Traxlmayr", "related_places": {}}, {"fsq_id": "5bba21633c858d002cf7d16a", "categories": [{"id": 13236, "name": "Italian Restaurant", "icon": {"prefix": "https://ss3.4sqi.net/img/categories_v2/food/italian_", "suffix": ".png"}}], "chains": [], "distance": 201, "geocodes": {"main": {"latitude": 48.302786, "longitude": 14.29109}, "roof": {"latitude": 48.302786, "longitude": 14.29109}}, "link": "/v3/places/5bba21633c858d002cf7d16a", "location": {"address": "Dametzstr. 38", "country": "AT", "cross_street": "", "formatted_address": "Dametzstr. 38, 4020 Linz", "locality": "Linz", "postcode": "4020", "region": "Ober\u00f6sterreich"}, "name": "BIGOLI Bar - Restaurant", "related_places": {}, "timezone": "Europe/Vienna"}, {"fsq_id": "919b73048b6b48a65520a668", "categories": [{"id": 13034, "name": "Caf\u00e9", "icon": {"prefix": "https://ss3.4sqi.net/img/categories_v2/food/cafe_", "suffix": ".png"}}, {"id": 13065, "name": "Restaurant", "icon": {"prefix": "https://ss3.4sqi.net/img/categories_v2/food/default_", "suffix": ".png"}}], "chains": [], "distance": 217, "geocodes": {"main": {"latitude": 48.302295, "longitude": 14.2919}, "roof": {"latitude": 48.302295, "longitude": 14.2919}}, "link": "/v3/places/919b73048b6b48a65520a668", "location": {"address": "Dametzstr. 39", "country": "AT", "formatted_address": "Dametzstr. 39, 4020 Linz", "locality": "Linz", "postcode": "4020", "region": "Ober\u00f6sterreich"}, "name": "Restaurant Zur Goldhaube - Griechenland gruesst Linz", "related_places": {}}], [{"fsq_id": "4c4551278c1f20a1ada73d99", "categories": [{"id": 13034, "name": "Caf\u00e9", "icon": {"prefix": "https://ss3.4sqi.net/img/categories_v2/food/cafe_", "suffix": ".png"}}, {"id": 13074, "name": "Austrian Restaurant", "icon": {"prefix": "https://ss3.4sqi.net/img/categories_v2/food/austrian_", "suffix": ".png"}}], "chains": [], "distance": 35, "geocodes": {"main": {"latitude": 48.295825, "longitude": 14.294806}, "roof": {"latitude": 48.295825, "longitude": 14.294806}}, "link": "/v3/places/4c4551278c1f20a1ada73d99", "location": {"address": "S\u00fcdtiroler Str. 31", "country": "AT", "formatted_address": "S\u00fcdtiroler Str. 31, 4020 Linz", "locality": "Linz", "postcode": "4020", "region": "Ober\u00f6sterreich"}, "name": "Kontrast Restaurant", "related_places": {}, "timezone": "Europe/Vienna"}, {"fsq_id": "8064b19106ab40cce38f78cd", "categories": [{"id": 13027, "name": "Bistro", "icon": {"prefix": "https://ss3.4sqi.net/img/categories_v2/food/default_", "suffix": ".png"}}], "chains": [], "distance": 68, "geocodes": {"drop_off": {"latitude": 48.295223, "longitude": 14.294468}, "main": {"latitude": 48.295378, "longitude": 14.29444}, "roof": {"latitude": 48.295378, "longitude": 14.29444}}, "link": "/v3/places/8064b19106ab40cce38f78cd", "location": {"address": "Blumauerstr. 9", "country": "AT", "formatted_address": "Blumauerstr. 9, 4020 Linz", "locality": "Linz", "postcode": "4020", "region": "Ober\u00f6sterreich"}, "name": "City Wok Cafe, Restaurant & Bar Yifeng MA", "related_places": {}}, {"fsq_id": "bfb867b4b4374f76db8c8566", "categories": [{"id": 13030, "name": "Buffet", "icon": {"prefix": "https://ss3.4sqi.net/img/categories_v2/food/default_", "suffix": ".png"}}], "chains": [], "distance": 119, "geocodes": {"main": {"latitude": 48.294774, "longitude": 14.294131}, "roof": {"latitude": 48.294774, "longitude": 14.294131}}, "link": "/v3/places/bfb867b4b4374f76db8c8566", "location": {"address": "Blumauer Str. 2", "country": "AT", "formatted_address": "Blumauer Str. 2, 4020 Linz", "locality": "Linz", "postcode": "4020", "region": "Ober\u00f6sterreich"}, "name": "Restaurant Kummerkasten - Steger Elfriede", "related_places": {}}, {"fsq_id": "97575b6208da4f1f105cac5d", "categories": [{"id": 13034, "name": "Caf\u00e9", "icon": {"prefix": "https://ss3.4sqi.net/img/categories_v2/food/cafe_", "suffix": ".png"}}, {"id": 13035, "name": "Coffee Shop", "icon": {"prefix": "https://ss3.4sqi.net/img/categories_v2/food/coffeeshop_", "suffix": ".png"}}, {"id": 13065, "name": "Restaurant", "icon": {"prefix": "https://ss3.4sqi.net/img/categories_v2/food/default_", "suffix": ".png"}}], "chains": [], "distance": 163, "geocodes": {"main": {"latitude": 48.295204, "longitude": 14.293178}, "roof": {"latitude": 48.295204, "longitude": 14.293178}}, "link": "/v3/places/97575b6208da4f1f105cac5d", "location": {"address": "Landstr. 119", "country": "AT", "formatted_address": "Landstr. 119, 4020 Linz", "locality": "Linz", "postcode": "4020", "region": "Ober\u00f6sterreich"}, "name": "Lebensfreude Cafe-Restaurant", "related_places": {}}, {"fsq_id": "83a9c5e249df4e619fc325f6", "categories": [{"id": 13065, "name": "Restaurant", "icon": {"prefix": "https://ss3.4sqi.net/img/categories_v2/food/default_", "suffix": ".png"}}], "chains": [], "distance": 258, "geocodes": {"drop_off": {"latitude": 48.296169, "longitude": 14.292001}, "main": {"latitude": 48.296157, "longitude": 14.291999}}, "link": "/v3/places/83a9c5e249df4e619fc325f6", "location": {"address": "Landstr. 17- 25/ P", "country": "AT", "formatted_address": "Landstr. 17- 25/ P, 4020 Linz", "locality": "Linz", "postcode": "4020", "region": "Ober\u00f6sterreich"}, "name": "MATADOO Restaurant- Betriebs", "related_places": {}}, {"fsq_id": "fc225bf95b874ef10e4013ba", "categories": [{"id": 13065, "name": "Restaurant", "icon": {"prefix": "https://ss3.4sqi.net/img/categories_v2/food/default_", "suffix": ".png"}}], "chains": [], "distance": 271, "geocodes": {"main": {"latitude": 48.293642, "longitude": 14.292922}, "roof": {"latitude": 48.293642, "longitude": 14.292922}}, "link": "/v3/places/fc225bf95b874ef10e4013ba", "location": {"address": "Bahnhofstr. 3", "country": "AT", "formatted_address": "Bahnhofstr. 3, 4020 Linz", "locality": "Linz", "postcode": "4020", "region": "Ober\u00f6sterreich"}, "name": "Restaurant Drehscheibe", "related_places": {}}, {"fsq_id": "465aff3d23ad48086282a587", "categories": [{"id": 13065, "name": "Restaurant", "icon": {"prefix": "https://ss3.4sqi.net/img/categories_v2/food/default_", "suffix": ".png"}}], "chains": [], "distance": 413, "geocodes": {"drop_off": {"latitude": 48.296007, "longitude": 14.289683}, "main": {"latitude": 48.29615, "longitude": 14.289847}, "roof": {"latitude": 48.29615, "longitude": 14.289847}}, "link": "/v3/places/465aff3d23ad48086282a587", "location": {"address": "Volksgartenstr. 19", "country": "AT", "formatted_address": "Volksgartenstr. 19, 4020 Linz", "locality": "Linz", "postcode": "4020", "region": "Ober\u00f6sterreich"}, "name": "Restaurant Baub\u00f6ck", "related_places": {}}, {"fsq_id": "557c0b9c498eee5420b4074a", "categories": [{"id": 13000, "name": "Dining and Drinking", "icon": {"prefix": "https://ss3.4sqi.net/img/categories_v2/food/default_", "suffix": ".png"}}], "chains": [], "distance": 418, "geocodes": {"main": {"latitude": 48.292342, "longitude": 14.29867}, "roof": {"latitude": 48.292342, "longitude": 14.29867}}, "link": "/v3/places/557c0b9c498eee5420b4074a", "location": {"address": "Anzengruberstr. 18", "country": "AT", "cross_street": "", "formatted_address": "Anzengruberstr. 18, 4020 Linz", "locality": "Linz", "postcode": "4020", "region": "Ober\u00f6sterreich"}, "name": "Cafe Restaurant Leiner", "related_places": {"parent": {"fsq_id": "4cadd1798b57a1cd8ff29a75", "name": "Leiner"}}, "timezone": "Europe/Vienna"}, {"fsq_id": "0fe3a0c3e4bb4b6eb4095551", "categories": [{"id": 13236, "name": "Italian Restaurant", "icon": {"prefix": "https://ss3.4sqi.net/img/categories_v2/food/italian_", "suffix": ".png"}}], "chains": [], "distance": 452, "geocodes": {"main": {"latitude": 48.298912, "longitude": 14.298646}, "roof": {"latitude": 48.298912, "longitude": 14.298646}}, "link": "/v3/places/0fe3a0c3e4bb4b6eb4095551", "location": {"address": "Schillerstr. 52", "country": "AT", "formatted_address": "Schillerstr. 52, 4020 Linz", "locality": "Linz", "postcode": "4020", "region": "Ober\u00f6sterreich"}, "name": "Balaton Restaurant", "related_places": {}}, {"fsq_id": "57dc71e1cd1077642490974c", "categories": [{"id": 13000, "name": "Dining and Drinking", "icon": {"prefix": "https://ss3.4sqi.net/img/categories_v2/food/default_", "suffix": ".png"}}], "chains": [], "distance": 479, "geocodes": {"main": {"latitude": 48.298439, "longitude": 14.290632}}, "link": "/v3/places/57dc71e1cd1077642490974c", "location": {"address": "Rainerstr. 2- 4", "country": "AT", "cross_street": "", "formatted_address": "Rainerstr. 2- 4, 4020 Linz", "locality": "Linz", "postcode": "4020", "region": "Ober\u00f6sterreich"}, "name": "Cuisino - das Restaurant im Casino Linz", "related_places": {"parent": {"fsq_id": "4b991caff964a5201b6235e3", "name": "Casino Linz"}}, "timezone": "Europe/Vienna"}], [{"fsq_id": "7aebe5a6f61c41497052191e", "categories": [{"id": 13065, "name": "Restaurant", "icon": {"prefix": "https://ss3.4sqi.net/img/categories_v2/food/default_", "suffix": ".png"}}], "chains": [], "distance": 43, "geocodes": {"drop_off": {"latitude": 48.308129, "longitude": 14.289426}, "main": {"latitude": 48.308146, "longitude": 14.28942}}, "link": "/v3/places/7aebe5a6f61c41497052191e", "location": {"address": "Untere Donaulaende 11", "country": "AT", "formatted_address": "Untere Donaulaende 11, 4020 Linz", "locality": "Linz", "postcode": "4020", "region": "Ober\u00f6sterreich"}, "name": "Restaurant Parkbad Bueffet", "related_places": {}}, {"fsq_id": "4bbe19fcfc0fd13a8deca150", "categories": [{"id": 13034, "name": "Caf\u00e9", "icon": {"prefix": "https://ss3.4sqi.net/img/categories_v2/food/cafe_", "suffix": ".png"}}, {"id": 13000, "name": "Dining and Drinking", "icon": {"prefix": "https://ss3.4sqi.net/img/categories_v2/food/default_", "suffix": ".png"}}, {"id": 13003, "name": "Bar", "icon": {"prefix": "https://ss3.4sqi.net/img/categories_v2/nightlife/pub_", "suffix": ".png"}}], "chains": [], "distance": 74, "geocodes": {"main": {"latitude": 48.308948, "longitude": 14.289424}, "roof": {"latitude": 48.308948, "longitude": 14.289424}}, "link": "/v3/places/4bbe19fcfc0fd13a8deca150", "location": {"address": "Ernst-Koref-Promenade 1", "country": "AT", "cross_street": "", "formatted_address": "Ernst-Koref-Promenade 1, 4020 Linz", "locality": "Linz", "postcode": "4020", "region": "Ober\u00f6sterreich"}, "name": "Cafe Bar Restaurant Lentos", "related_places": {"parent": {"fsq_id": "4c091fd07e3fc928bf5ff182", "name": "Lentos Kunstmuseum"}}, "timezone": "Europe/Vienna"}, {"fsq_id": "4eb8111782313162705ab79e", "categories": [{"id": 13177, "name": "Greek Restaurant", "icon": {"prefix": "https://ss3.4sqi.net/img/categories_v2/food/greek_", "suffix": ".png"}}], "chains": [], "distance": 155, "geocodes": {"main": {"latitude": 48.306624, "longitude": 14.28789}, "roof": {"latitude": 48.306624, "longitude": 14.28789}}, "link": "/v3/places/4eb8111782313162705ab79e", "location": {"address": "Neutorgasse 3", "country": "AT", "cross_street": "", "formatted_address": "Neutorgasse 3, 4020 Linz", "locality": "Linz", "postcode": "4020", "region": "Ober\u00f6sterreich"}, "name": "Restaurant Sorbas Taverne", "related_places": {}, "timezone": "Europe/Vienna"}, {"fsq_id": "ee8e42b4f3d94be502eaa486", "categories": [{"id": 13065, "name": "Restaurant", "icon": {"prefix": "https://ss3.4sqi.net/img/categories_v2/food/default_", "suffix": ".png"}}], "chains": [], "distance": 166, "geocodes": {"main": {"latitude": 48.307186, "longitude": 14.287418}, "roof": {"latitude": 48.307186, "longitude": 14.287418}}, "link": "/v3/places/ee8e42b4f3d94be502eaa486", "location": {"address": "Adalbert-Stifter-Platz 2", "country": "AT", "formatted_address": "Adalbert-Stifter-Platz 2, 4020 Linz", "locality": "Linz", "postcode": "4020", "region": "Ober\u00f6sterreich"}, "name": "Yoko Sushi-Restaurant", "related_places": {}}, {"fsq_id": "4b953aeef964a5209c9634e3", "categories": [{"id": 13099, "name": "Chinese Restaurant", "icon": {"prefix": "https://ss3.4sqi.net/img/categories_v2/food/asian_", "suffix": ".png"}}, {"id": 13352, "name": "Thai Restaurant", "icon": {"prefix": "https://ss3.4sqi.net/img/categories_v2/food/thai_", "suffix": ".png"}}, {"id": 13379, "name": "Vietnamese Restaurant", "icon": {"prefix": "https://ss3.4sqi.net/img/categories_v2/food/vietnamese_", "suffix": ".png"}}], "chains": [], "distance": 168, "geocodes": {"main": {"latitude": 48.307135, "longitude": 14.28747}, "roof": {"latitude": 48.307135, "longitude": 14.28747}}, "link": "/v3/places/4b953aeef964a5209c9634e3", "location": {"address": "Adalbert-Stifter-Platz 2", "country": "AT", "formatted_address": "Adalbert-Stifter-Platz 2, 4020 Linz", "locality": "Linz", "postcode": "4020", "region": "Ober\u00f6sterreich"}, "name": "China- Restaurant Goldene Pagode", "related_places": {}, "timezone": "Europe/Vienna"}, {"fsq_id": "4b5b2be1f964a52068e828e3", "categories": [{"id": 13199, "name": "Indian Restaurant", "icon": {"prefix": "https://ss3.4sqi.net/img/categories_v2/food/indian_", "suffix": ".png"}}], "chains": [], "distance": 170, "geocodes": {"drop_off": {"latitude": 48.306829, "longitude": 14.287579}, "main": {"latitude": 48.306715, "longitude": 14.287591}, "roof": {"latitude": 48.306715, "longitude": 14.287591}}, "link": "/v3/places/4b5b2be1f964a52068e828e3", "location": {"address": "Adlergasse 14", "country": "AT", "formatted_address": "Adlergasse 14, 4020 Linz", "locality": "Linz", "postcode": "4020", "region": "Ober\u00f6sterreich"}, "name": "Indisches Restaurant TAJ MAHAL", "related_places": {}, "timezone": "Europe/Vienna"}, {"fsq_id": "149f93b223004f839f3837b2", "categories": [{"id": 13065, "name": "Restaurant", "icon": {"prefix": "https://ss3.4sqi.net/img/categories_v2/food/default_", "suffix": ".png"}}], "chains": [], "distance": 175, "geocodes": {"main": {"latitude": 48.30708, "longitude": 14.287424}, "roof": {"latitude": 48.30708, "longitude": 14.287424}}, "link": "/v3/places/149f93b223004f839f3837b2", "location": {"address": "Adalbert-Stifter-Platz 2", "country": "AT", "formatted_address": "Adalbert-Stifter-Platz 2, 4020 Linz", "locality": "Linz", "postcode": "4020", "region": "Ober\u00f6sterreich"}, "name": "Restaurant II Leonetto", "related_places": {}}, {"fsq_id": "4d766e96ac39721e50daa113", "categories": [{"id": 13030, "name": "Buffet", "icon": {"prefix": "https://ss3.4sqi.net/img/categories_v2/food/default_", "suffix": ".png"}}, {"id": 13099, "name": "Chinese Restaurant", "icon": {"prefix": "https://ss3.4sqi.net/img/categories_v2/food/asian_", "suffix": ".png"}}, {"id": 13276, "name": "Sushi Restaurant", "icon": {"prefix": "https://ss3.4sqi.net/img/categories_v2/food/sushi_", "suffix": ".png"}}], "chains": [], "distance": 191, "geocodes": {"main": {"latitude": 48.30662, "longitude": 14.289848}, "roof": {"latitude": 48.30662, "longitude": 14.289848}}, "link": "/v3/places/4d766e96ac39721e50daa113", "location": {"address": "Pfarrplatz 11", "country": "AT", "cross_street": "", "formatted_address": "Pfarrplatz 11, 4020 Linz", "locality": "Linz", "postcode": "4020", "region": "Ober\u00f6sterreich"}, "name": "China-Restaurant Jin Lu", "related_places": {}, "timezone": "Europe/Vienna"}, {"fsq_id": "1173fdc2877e45396c13cafd", "categories": [{"id": 13177, "name": "Greek Restaurant", "icon": {"prefix": "https://ss3.4sqi.net/img/categories_v2/food/greek_", "suffix": ".png"}}], "chains": [], "distance": 206, "geocodes": {"main": {"latitude": 48.306564, "longitude": 14.289802}, "roof": {"latitude": 48.306564, "longitude": 14.289802}}, "link": "/v3/places/1173fdc2877e45396c13cafd", "location": {"address": "Pfarrplatz 11", "country": "AT", "formatted_address": "Pfarrplatz 11, 4020 Linz", "locality": "Linz", "postcode": "4020", "region": "Ober\u00f6sterreich"}, "name": "Restaurant Alt Athen", "related_places": {}}, {"fsq_id": "4b5b4dfff964a52026f328e3", "categories": [{"id": 13000, "name": "Dining and Drinking", "icon": {"prefix": "https://ss3.4sqi.net/img/categories_v2/food/default_", "suffix": ".png"}}], "chains": [], "distance": 246, "geocodes": {"main": {"latitude": 48.30645, "longitude": 14.286628}, "roof": {"latitude": 48.30645, "longitude": 14.286628}}, "link": "/v3/places/4b5b4dfff964a52026f328e3", "location": {"address": "Hauptplatz 4", "country": "AT", "formatted_address": "Hauptplatz 4, 4020 Linz", "locality": "Linz", "postcode": "4020", "region": "Ober\u00f6sterreich"}, "name": "Restaurant-Cafe Alte Welt", "related_places": {}, "timezone": "Europe/Vienna"}], [{"fsq_id": "e96dbd0f74f74178f7961757", "categories": [{"id": 13177, "name": "Greek Restaurant", "icon": {"prefix": "https://ss3.4sqi.net/img/categories_v2/food/greek_", "suffix": ".png"}}], "chains": [], "distance": 196, "geocodes": {"main": {"latitude": 48.310412, "longitude": 14.292865}, "roof": {"latitude": 48.310412, "longitude": 14.292865}}, "link": "/v3/places/e96dbd0f74f74178f7961757", "location": {"address": "Untere Donaul\u00e4nde 7", "country": "AT", "formatted_address": "Untere Donaul\u00e4nde 7, 4020 Linz", "locality": "Linz", "postcode": "4020", "region": "Ober\u00f6sterreich"}, "name": "Restaurant Anklang", "related_places": {}}, {"fsq_id": "7aebe5a6f61c41497052191e", "categories": [{"id": 13065, "name": "Restaurant", "icon": {"prefix": "https://ss3.4sqi.net/img/categories_v2/food/default_", "suffix": ".png"}}], "chains": [], "distance": 258, "geocodes": {"drop_off": {"latitude": 48.308129, "longitude": 14.289426}, "main": {"latitude": 48.308146, "longitude": 14.28942}}, "link": "/v3/places/7aebe5a6f61c41497052191e", "location": {"address": "Untere Donaulaende 11", "country": "AT", "formatted_address": "Untere Donaulaende 11, 4020 Linz", "locality": "Linz", "postcode": "4020", "region": "Ober\u00f6sterreich"}, "name": "Restaurant Parkbad Bueffet", "related_places": {}}, {"fsq_id": "062663b462284da0f0ddff76", "categories": [{"id": 13065, "name": "Restaurant", "icon": {"prefix": "https://ss3.4sqi.net/img/categories_v2/food/default_", "suffix": ".png"}}], "chains": [], "distance": 307, "geocodes": {"main": {"latitude": 48.31132, "longitude": 14.293891}, "roof": {"latitude": 48.31132, "longitude": 14.293891}}, "link": "/v3/places/062663b462284da0f0ddff76", "location": {"address": "Untere Donaul\u00e4nde 9", "country": "AT", "formatted_address": "Untere Donaul\u00e4nde 9, 4020 Linz", "locality": "Linz", "postcode": "4020", "region": "Ober\u00f6sterreich"}, "name": "Das Restaurant", "related_places": {}}, {"fsq_id": "1173fdc2877e45396c13cafd", "categories": [{"id": 13177, "name": "Greek Restaurant", "icon": {"prefix": "https://ss3.4sqi.net/img/categories_v2/food/greek_", "suffix": ".png"}}], "chains": [], "distance": 321, "geocodes": {"main": {"latitude": 48.306564, "longitude": 14.289802}, "roof": {"latitude": 48.306564, "longitude": 14.289802}}, "link": "/v3/places/1173fdc2877e45396c13cafd", "location": {"address": "Pfarrplatz 11", "country": "AT", "formatted_address": "Pfarrplatz 11, 4020 Linz", "locality": "Linz", "postcode": "4020", "region": "Ober\u00f6sterreich"}, "name": "Restaurant Alt Athen", "related_places": {}}, {"fsq_id": "4d766e96ac39721e50daa113", "categories": [{"id": 13030, "name": "Buffet", "icon": {"prefix": "https://ss3.4sqi.net/img/categories_v2/food/default_", "suffix": ".png"}}, {"id": 13099, "name": "Chinese Restaurant", "icon": {"prefix": "https://ss3.4sqi.net/img/categories_v2/food/asian_", "suffix": ".png"}}, {"id": 13276, "name": "Sushi Restaurant", "icon": {"prefix": "https://ss3.4sqi.net/img/categories_v2/food/sushi_", "suffix": ".png"}}], "chains": [], "distance": 343, "geocodes": {"main": {"latitude": 48.30662, "longitude": 14.289848}, "roof": {"latitude": 48.30662, "longitude": 14.289848}}, "link": "/v3/places/4d766e96ac39721e50daa113", "location": {"address": "Pfarrplatz 11", "country": "AT", "cross_street": "", "formatted_address": "Pfarrplatz 11, 4020 Linz", "locality": "Linz", "postcode": "4020", "region": "Ober\u00f6sterreich"}, "name": "China-Restaurant Jin Lu", "related_places": {}, "timezone": "Europe/Vienna"}, {"fsq_id": "4bbe19fcfc0fd13a8deca150", "categories": [{"id": 13034, "name": "Caf\u00e9", "icon": {"prefix": "https://ss3.4sqi.net/img/categories_v2/food/cafe_", "suffix": ".png"}}, {"id": 13000, "name": "Dining and Drinking", "icon": {"prefix": "https://ss3.4sqi.net/img/categories_v2/food/default_", "suffix": ".png"}}, {"id": 13003, "name": "Bar", "icon": {"prefix": "https://ss3.4sqi.net/img/categories_v2/nightlife/pub_", "suffix": ".png"}}], "chains": [], "distance": 367, "geocodes": {"main": {"latitude": 48.308948, "longitude": 14.289424}, "roof": {"latitude": 48.308948, "longitude": 14.289424}}, "link": "/v3/places/4bbe19fcfc0fd13a8deca150", "location": {"address": "Ernst-Koref-Promenade 1", "country": "AT", "cross_street": "", "formatted_address": "Ernst-Koref-Promenade 1, 4020 Linz", "locality": "Linz", "postcode": "4020", "region": "Ober\u00f6sterreich"}, "name": "Cafe Bar Restaurant Lentos", "related_places": {"parent": {"fsq_id": "4c091fd07e3fc928bf5ff182", "name": "Lentos Kunstmuseum"}}, "timezone": "Europe/Vienna"}, {"fsq_id": "4eb8111782313162705ab79e", "categories": [{"id": 13177, "name": "Greek Restaurant", "icon": {"prefix": "https://ss3.4sqi.net/img/categories_v2/food/greek_", "suffix": ".png"}}], "chains": [], "distance": 397, "geocodes": {"main": {"latitude": 48.306624, "longitude": 14.28789}, "roof": {"latitude": 48.306624, "longitude": 14.28789}}, "link": "/v3/places/4eb8111782313162705ab79e", "location": {"address": "Neutorgasse 3", "country": "AT", "cross_street": "", "formatted_address": "Neutorgasse 3, 4020 Linz", "locality": "Linz", "postcode": "4020", "region": "Ober\u00f6sterreich"}, "name": "Restaurant Sorbas Taverne", "related_places": {}, "timezone": "Europe/Vienna"}, {"fsq_id": "4b5b2be1f964a52068e828e3", "categories": [{"id": 13199, "name": "Indian Restaurant", "icon": {"prefix": "https://ss3.4sqi.net/img/categories_v2/food/indian_", "suffix": ".png"}}], "chains": [], "distance": 416, "geocodes": {"drop_off": {"latitude": 48.306829, "longitude": 14.287579}, "main": {"latitude": 48.306715, "longitude": 14.287591}, "roof": {"latitude": 48.306715, "longitude": 14.287591}}, "link": "/v3/places/4b5b2be1f964a52068e828e3", "location": {"address": "Adlergasse 14", "country": "AT", "formatted_address": "Adlergasse 14, 4020 Linz", "locality": "Linz", "postcode": "4020", "region": "Ober\u00f6sterreich"}, "name": "Indisches Restaurant TAJ MAHAL", "related_places": {}, "timezone": "Europe/Vienna"}, {"fsq_id": "706bfe8230244786b8f13851", "categories": [], "chains": [], "distance": 418, "geocodes": {"main": {"latitude": 48.310253, "longitude": 14.297963}, "roof": {"latitude": 48.310253, "longitude": 14.297963}}, "link": "/v3/places/706bfe8230244786b8f13851", "location": {"address": "Ludlgasse 10/10", "country": "AT", "formatted_address": "Ludlgasse 10/10, 4020 Linz", "locality": "Linz", "postcode": "4020", "region": "Ober\u00f6sterreich"}, "name": "Restaurant Griechische Taverne Alexandros MAHMOOD", "related_places": {}}, {"fsq_id": "4b953aeef964a5209c9634e3", "categories": [{"id": 13099, "name": "Chinese Restaurant", "icon": {"prefix": "https://ss3.4sqi.net/img/categories_v2/food/asian_", "suffix": ".png"}}, {"id": 13352, "name": "Thai Restaurant", "icon": {"prefix": "https://ss3.4sqi.net/img/categories_v2/food/thai_", "suffix": ".png"}}, {"id": 13379, "name": "Vietnamese Restaurant", "icon": {"prefix": "https://ss3.4sqi.net/img/categories_v2/food/vietnamese_", "suffix": ".png"}}], "chains": [], "distance": 422, "geocodes": {"main": {"latitude": 48.307135, "longitude": 14.28747}, "roof": {"latitude": 48.307135, "longitude": 14.28747}}, "link": "/v3/places/4b953aeef964a5209c9634e3", "location": {"address": "Adalbert-Stifter-Platz 2", "country": "AT", "formatted_address": "Adalbert-Stifter-Platz 2, 4020 Linz", "locality": "Linz", "postcode": "4020", "region": "Ober\u00f6sterreich"}, "name": "China- Restaurant Goldene Pagode", "related_places": {}, "timezone": "Europe/Vienna"}], [{"fsq_id": "550bfef6498e4e86fd6da635", "categories": [{"id": 13000, "name": "Dining and Drinking", "icon": {"prefix": "https://ss3.4sqi.net/img/categories_v2/food/default_", "suffix": ".png"}}], "chains": [], "distance": 389, "geocodes": {"main": {"latitude": 48.314781, "longitude": 14.282787}}, "link": "/v3/places/550bfef6498e4e86fd6da635", "location": {"address": "Hauptstr. 54", "country": "AT", "cross_street": "Bl\u00fctenstr. 13-23", "formatted_address": "Hauptstr. 54 (Bl\u00fctenstr. 13-23), 4040 Linz", "locality": "Linz", "postcode": "4040", "region": "Ober\u00f6sterreich"}, "name": "MERKUR Restaurant", "related_places": {"parent": {"fsq_id": "4cc7c7bc7be65481c0282a23", "name": "LentiaCity"}}, "timezone": "Europe/Vienna"}, {"fsq_id": "54e9d830498e2565b4bfea0e", "categories": [{"id": 13000, "name": "Dining and Drinking", "icon": {"prefix": "https://ss3.4sqi.net/img/categories_v2/food/default_", "suffix": ".png"}}], "chains": [], "distance": 494, "geocodes": {"main": {"latitude": 48.310782, "longitude": 14.281687}, "roof": {"latitude": 48.310782, "longitude": 14.281687}}, "link": "/v3/places/54e9d830498e2565b4bfea0e", "location": {"address": "Rudolfstr. 11", "country": "AT", "cross_street": "", "formatted_address": "Rudolfstr. 11, 4040 Linz", "locality": "Linz", "postcode": "4040", "region": "Ober\u00f6sterreich"}, "name": "Restaurant Urbanides", "related_places": {}, "timezone": "Europe/Vienna"}, {"fsq_id": "4a9c6e665ee347add6de65e9", "categories": [], "chains": [], "distance": 495, "geocodes": {"drop_off": {"latitude": 48.31035, "longitude": 14.28234}, "main": {"latitude": 48.310494, "longitude": 14.282291}, "roof": {"latitude": 48.310494, "longitude": 14.282291}}, "link": "/v3/places/4a9c6e665ee347add6de65e9", "location": {"address": "Fiedlerstr. 6", "country": "AT", "formatted_address": "Fiedlerstr. 6, 4040 Linz", "locality": "Linz", "postcode": "4040", "region": "Ober\u00f6sterreich"}, "name": "Restaurant Paladino, c/o Spitz Hotel", "related_places": {}}, {"fsq_id": "e96dbd0f74f74178f7961757", "categories": [{"id": 13177, "name": "Greek Restaurant", "icon": {"prefix": "https://ss3.4sqi.net/img/categories_v2/food/greek_", "suffix": ".png"}}], "chains": [], "distance": 505, "geocodes": {"main": {"latitude": 48.310412, "longitude": 14.292865}, "roof": {"latitude": 48.310412, "longitude": 14.292865}}, "link": "/v3/places/e96dbd0f74f74178f7961757", "location": {"address": "Untere Donaul\u00e4nde 7", "country": "AT", "formatted_address": "Untere Donaul\u00e4nde 7, 4020 Linz", "locality": "Linz", "postcode": "4020", "region": "Ober\u00f6sterreich"}, "name": "Restaurant Anklang", "related_places": {}}, {"fsq_id": "062663b462284da0f0ddff76", "categories": [{"id": 13065, "name": "Restaurant", "icon": {"prefix": "https://ss3.4sqi.net/img/categories_v2/food/default_", "suffix": ".png"}}], "chains": [], "distance": 516, "geocodes": {"main": {"latitude": 48.31132, "longitude": 14.293891}, "roof": {"latitude": 48.31132, "longitude": 14.293891}}, "link": "/v3/places/062663b462284da0f0ddff76", "location": {"address": "Untere Donaul\u00e4nde 9", "country": "AT", "formatted_address": "Untere Donaul\u00e4nde 9, 4020 Linz", "locality": "Linz", "postcode": "4020", "region": "Ober\u00f6sterreich"}, "name": "Das Restaurant", "related_places": {}}, {"fsq_id": "4bbe19fcfc0fd13a8deca150", "categories": [{"id": 13034, "name": "Caf\u00e9", "icon": {"prefix": "https://ss3.4sqi.net/img/categories_v2/food/cafe_", "suffix": ".png"}}, {"id": 13000, "name": "Dining and Drinking", "icon": {"prefix": "https://ss3.4sqi.net/img/categories_v2/food/default_", "suffix": ".png"}}, {"id": 13003, "name": "Bar", "icon": {"prefix": "https://ss3.4sqi.net/img/categories_v2/nightlife/pub_", "suffix": ".png"}}], "chains": [], "distance": 570, "geocodes": {"main": {"latitude": 48.308948, "longitude": 14.289424}, "roof": {"latitude": 48.308948, "longitude": 14.289424}}, "link": "/v3/places/4bbe19fcfc0fd13a8deca150", "location": {"address": "Ernst-Koref-Promenade 1", "country": "AT", "cross_street": "", "formatted_address": "Ernst-Koref-Promenade 1, 4020 Linz", "locality": "Linz", "postcode": "4020", "region": "Ober\u00f6sterreich"}, "name": "Cafe Bar Restaurant Lentos", "related_places": {"parent": {"fsq_id": "4c091fd07e3fc928bf5ff182", "name": "Lentos Kunstmuseum"}}, "timezone": "Europe/Vienna"}, {"fsq_id": "7aebe5a6f61c41497052191e", "categories": [{"id": 13065, "name": "Restaurant", "icon": {"prefix": "https://ss3.4sqi.net/img/categories_v2/food/default_", "suffix": ".png"}}], "chains": [], "distance": 586, "geocodes": {"drop_off": {"latitude": 48.308129, "longitude": 14.289426}, "main": {"latitude": 48.308146, "longitude": 14.28942}}, "link": "/v3/places/7aebe5a6f61c41497052191e", "location": {"address": "Untere Donaulaende 11", "country": "AT", "formatted_address": "Untere Donaulaende 11, 4020 Linz", "locality": "Linz", "postcode": "4020", "region": "Ober\u00f6sterreich"}, "name": "Restaurant Parkbad Bueffet", "related_places": {}}, {"fsq_id": "794ed4aaa1b5486d2a827add", "categories": [{"id": 13379, "name": "Vietnamese Restaurant", "icon": {"prefix": "https://ss3.4sqi.net/img/categories_v2/food/vietnamese_", "suffix": ".png"}}], "chains": [], "distance": 616, "geocodes": {"main": {"latitude": 48.318816, "longitude": 14.287158}, "roof": {"latitude": 48.318816, "longitude": 14.287158}}, "link": "/v3/places/794ed4aaa1b5486d2a827add", "location": {"address": "Freist\u00e4dter Str. 60", "country": "AT", "formatted_address": "Freist\u00e4dter Str. 60, 4040 Linz", "locality": "Linz", "postcode": "4040", "region": "Ober\u00f6sterreich"}, "name": "Vietnam Pho Restaurant Lethuy", "related_places": {}}, {"fsq_id": "7891e1e1868147871b390c0a", "categories": [{"id": 13065, "name": "Restaurant", "icon": {"prefix": "https://ss3.4sqi.net/img/categories_v2/food/default_", "suffix": ".png"}}], "chains": [], "distance": 620, "geocodes": {"drop_off": {"latitude": 48.318123, "longitude": 14.283195}, "main": {"latitude": 48.318138, "longitude": 14.283428}, "roof": {"latitude": 48.318138, "longitude": 14.283428}}, "link": "/v3/places/7891e1e1868147871b390c0a", "location": {"country": "AT", "formatted_address": "", "region": "Salzburg"}, "name": "Restaurant bei Bruno", "related_places": {}}, {"fsq_id": "ee8e42b4f3d94be502eaa486", "categories": [{"id": 13065, "name": "Restaurant", "icon": {"prefix": "https://ss3.4sqi.net/img/categories_v2/food/default_", "suffix": ".png"}}], "chains": [], "distance": 676, "geocodes": {"main": {"latitude": 48.307186, "longitude": 14.287418}, "roof": {"latitude": 48.307186, "longitude": 14.287418}}, "link": "/v3/places/ee8e42b4f3d94be502eaa486", "location": {"address": "Adalbert-Stifter-Platz 2", "country": "AT", "formatted_address": "Adalbert-Stifter-Platz 2, 4020 Linz", "locality": "Linz", "postcode": "4020", "region": "Ober\u00f6sterreich"}, "name": "Yoko Sushi-Restaurant", "related_places": {}}], [{"fsq_id": "504a57bcd63efbbfd051a7d2", "categories": [{"id": 13072, "name": "Asian Restaurant", "icon": {"prefix": "https://ss3.4sqi.net/img/categories_v2/food/asian_", "suffix": ".png"}}], "chains": [], "distance": 300, "geocodes": {"main": {"latitude": 48.290782, "longitude": 14.288337}, "roof": {"latitude": 48.290782, "longitude": 14.288337}}, "link": "/v3/places/504a57bcd63efbbfd051a7d2", "location": {"address": "K\u00e4rntnerstr. 26", "country": "AT", "cross_street": "im Wissensturm", "formatted_address": "K\u00e4rntnerstr. 26 (im Wissensturm), 4020 Linz", "locality": "Linz", "postcode": "4020", "region": "Ober\u00f6sterreich"}, "name": "Niu Restaurant", "related_places": {}, "timezone": "Europe/Vienna"}, {"fsq_id": "66e7bcfeadbd40d65996b9cd", "categories": [{"id": 19000, "name": "Travel and Transportation", "icon": {"prefix": "https://ss3.4sqi.net/img/categories_v2/travel/default_", "suffix": ".png"}}], "chains": [], "distance": 315, "geocodes": {"main": {"latitude": 48.290772, "longitude": 14.289169}, "roof": {"latitude": 48.290772, "longitude": 14.289169}}, "link": "/v3/places/66e7bcfeadbd40d65996b9cd", "location": {"address": "K\u00e4rntner Str. 18- 20", "country": "AT", "formatted_address": "K\u00e4rntner Str. 18- 20, 4020 Linz", "locality": "Linz", "postcode": "4020", "region": "Ober\u00f6sterreich"}, "name": "Restaurante Hotel Ibis Linz", "related_places": {}}, {"fsq_id": "465aff3d23ad48086282a587", "categories": [{"id": 13065, "name": "Restaurant", "icon": {"prefix": "https://ss3.4sqi.net/img/categories_v2/food/default_", "suffix": ".png"}}], "chains": [], "distance": 319, "geocodes": {"drop_off": {"latitude": 48.296007, "longitude": 14.289683}, "main": {"latitude": 48.29615, "longitude": 14.289847}, "roof": {"latitude": 48.29615, "longitude": 14.289847}}, "link": "/v3/places/465aff3d23ad48086282a587", "location": {"address": "Volksgartenstr. 19", "country": "AT", "formatted_address": "Volksgartenstr. 19, 4020 Linz", "locality": "Linz", "postcode": "4020", "region": "Ober\u00f6sterreich"}, "name": "Restaurant Baub\u00f6ck", "related_places": {}}, {"fsq_id": "fc225bf95b874ef10e4013ba", "categories": [{"id": 13065, "name": "Restaurant", "icon": {"prefix": "https://ss3.4sqi.net/img/categories_v2/food/default_", "suffix": ".png"}}], "chains": [], "distance": 356, "geocodes": {"main": {"latitude": 48.293642, "longitude": 14.292922}, "roof": {"latitude": 48.293642, "longitude": 14.292922}}, "link": "/v3/places/fc225bf95b874ef10e4013ba", "location": {"address": "Bahnhofstr. 3", "country": "AT", "formatted_address": "Bahnhofstr. 3, 4020 Linz", "locality": "Linz", "postcode": "4020", "region": "Ober\u00f6sterreich"}, "name": "Restaurant Drehscheibe", "related_places": {}}, {"fsq_id": "4c7682e966be6dcb5549c30f", "categories": [{"id": 12013, "name": "College and University", "icon": {"prefix": "https://ss3.4sqi.net/img/categories_v2/education/default_", "suffix": ".png"}}], "chains": [], "distance": 364, "geocodes": {"main": {"latitude": 48.290835, "longitude": 14.285301}, "roof": {"latitude": 48.290835, "longitude": 14.285301}}, "link": "/v3/places/4c7682e966be6dcb5549c30f", "location": {"address": "Bergschl\u00f6\u00dflgasse 1", "country": "AT", "formatted_address": "Bergschl\u00f6\u00dflgasse 1, 4020 Linz", "locality": "Linz", "postcode": "4020", "region": "Ober\u00f6sterreich"}, "name": "LIMAK Austrian Business School", "related_places": {}, "timezone": "Europe/Vienna"}, {"fsq_id": "83a9c5e249df4e619fc325f6", "categories": [{"id": 13065, "name": "Restaurant", "icon": {"prefix": "https://ss3.4sqi.net/img/categories_v2/food/default_", "suffix": ".png"}}], "chains": [], "distance": 410, "geocodes": {"drop_off": {"latitude": 48.296169, "longitude": 14.292001}, "main": {"latitude": 48.296157, "longitude": 14.291999}}, "link": "/v3/places/83a9c5e249df4e619fc325f6", "location": {"address": "Landstr. 17- 25/ P", "country": "AT", "formatted_address": "Landstr. 17- 25/ P, 4020 Linz", "locality": "Linz", "postcode": "4020", "region": "Ober\u00f6sterreich"}, "name": "MATADOO Restaurant- Betriebs", "related_places": {}}, {"fsq_id": "cc329f76b028481766aa8179", "categories": [{"id": 13065, "name": "Restaurant", "icon": {"prefix": "https://ss3.4sqi.net/img/categories_v2/food/default_", "suffix": ".png"}}], "chains": [], "distance": 418, "geocodes": {"main": {"latitude": 48.290282, "longitude": 14.291007}, "roof": {"latitude": 48.290282, "longitude": 14.291007}}, "link": "/v3/places/cc329f76b028481766aa8179", "location": {"address": "Bahnhofplatz 3- 6", "country": "AT", "formatted_address": "Bahnhofplatz 3- 6, 4020 Linz", "locality": "Linz", "postcode": "4020", "region": "Ober\u00f6sterreich"}, "name": "MATADOO Restaurant", "related_places": {}}, {"fsq_id": "97575b6208da4f1f105cac5d", "categories": [{"id": 13034, "name": "Caf\u00e9", "icon": {"prefix": "https://ss3.4sqi.net/img/categories_v2/food/cafe_", "suffix": ".png"}}, {"id": 13035, "name": "Coffee Shop", "icon": {"prefix": "https://ss3.4sqi.net/img/categories_v2/food/coffeeshop_", "suffix": ".png"}}, {"id": 13065, "name": "Restaurant", "icon": {"prefix": "https://ss3.4sqi.net/img/categories_v2/food/default_", "suffix": ".png"}}], "chains": [], "distance": 418, "geocodes": {"main": {"latitude": 48.295204, "longitude": 14.293178}, "roof": {"latitude": 48.295204, "longitude": 14.293178}}, "link": "/v3/places/97575b6208da4f1f105cac5d", "location": {"address": "Landstr. 119", "country": "AT", "formatted_address": "Landstr. 119, 4020 Linz", "locality": "Linz", "postcode": "4020", "region": "Ober\u00f6sterreich"}, "name": "Lebensfreude Cafe-Restaurant", "related_places": {}}, {"fsq_id": "bfb867b4b4374f76db8c8566", "categories": [{"id": 13030, "name": "Buffet", "icon": {"prefix": "https://ss3.4sqi.net/img/categories_v2/food/default_", "suffix": ".png"}}], "chains": [], "distance": 466, "geocodes": {"main": {"latitude": 48.294774, "longitude": 14.294131}, "roof": {"latitude": 48.294774, "longitude": 14.294131}}, "link": "/v3/places/bfb867b4b4374f76db8c8566", "location": {"address": "Blumauer Str. 2", "country": "AT", "formatted_address": "Blumauer Str. 2, 4020 Linz", "locality": "Linz", "postcode": "4020", "region": "Ober\u00f6sterreich"}, "name": "Restaurant Kummerkasten - Steger Elfriede", "related_places": {}}, {"fsq_id": "4d7a20d678be594162dbaf70", "categories": [{"id": 13000, "name": "Dining and Drinking", "icon": {"prefix": "https://ss3.4sqi.net/img/categories_v2/food/default_", "suffix": ".png"}}], "chains": [], "distance": 511, "geocodes": {"drop_off": {"latitude": 48.298029, "longitude": 14.289199}, "main": {"latitude": 48.298047, "longitude": 14.289349}, "roof": {"latitude": 48.298047, "longitude": 14.289349}}, "link": "/v3/places/4d7a20d678be594162dbaf70", "location": {"address": "Gesellenhausstr. 7", "country": "AT", "formatted_address": "Gesellenhausstr. 7, 4020 Linz", "locality": "Linz", "postcode": "4020", "region": "Ober\u00f6sterreich"}, "name": "Kolping Restaurant", "related_places": {}, "timezone": "Europe/Vienna"}], [{"fsq_id": "a75f002b95bd4d9b6a9349ad", "categories": [{"id": 13302, "name": "Mediterranean Restaurant", "icon": {"prefix": "https://ss3.4sqi.net/img/categories_v2/food/mediterranean_", "suffix": ".png"}}, {"id": 13356, "name": "Turkish Restaurant", "icon": {"prefix": "https://ss3.4sqi.net/img/categories_v2/food/turkish_", "suffix": ".png"}}], "chains": [], "distance": 33, "geocodes": {"drop_off": {"latitude": 48.299716, "longitude": 14.28993}, "main": {"latitude": 48.299681, "longitude": 14.289943}, "roof": {"latitude": 48.299681, "longitude": 14.289943}}, "link": "/v3/places/a75f002b95bd4d9b6a9349ad", "location": {"address": "Magazingasse 11", "country": "AT", "formatted_address": "Magazingasse 11, 4020 Linz", "locality": "Linz", "postcode": "4020", "region": "Ober\u00f6sterreich"}, "name": "Cafe Restaurant Antebia Mediterran", "related_places": {}}, {"fsq_id": "a568ca06cba54d2d54b290c3", "categories": [{"id": 13029, "name": "Brewery", "icon": {"prefix": "https://ss3.4sqi.net/img/categories_v2/food/brewery_", "suffix": ".png"}}, {"id": 13065, "name": "Restaurant", "icon": {"prefix": "https://ss3.4sqi.net/img/categories_v2/food/default_", "suffix": ".png"}}], "chains": [], "distance": 36, "geocodes": {"drop_off": {"latitude": 48.299696, "longitude": 14.289872}, "main": {"latitude": 48.299625, "longitude": 14.289897}, "roof": {"latitude": 48.299625, "longitude": 14.289897}}, "link": "/v3/places/a568ca06cba54d2d54b290c3", "location": {"address": "Magazingasse 10", "country": "AT", "formatted_address": "Magazingasse 10, 4020 Linz", "locality": "Linz", "postcode": "4020", "region": "Ober\u00f6sterreich"}, "name": "Restaurant Chindia China & India", "related_places": {}}, {"fsq_id": "b12ecfdb84104eae1a805559", "categories": [{"id": 13065, "name": "Restaurant", "icon": {"prefix": "https://ss3.4sqi.net/img/categories_v2/food/default_", "suffix": ".png"}}], "chains": [], "distance": 145, "geocodes": {"drop_off": {"latitude": 48.298598, "longitude": 14.290558}, "main": {"latitude": 48.298753, "longitude": 14.290582}, "roof": {"latitude": 48.298753, "longitude": 14.290582}}, "link": "/v3/places/b12ecfdb84104eae1a805559", "location": {"address": "Langgasse 6", "country": "AT", "formatted_address": "Langgasse 6, 4020 Linz", "locality": "Linz", "postcode": "4020", "region": "Ober\u00f6sterreich"}, "name": "Restaurant Weinhandel Josefine Pichler Inh Max Grisenti", "related_places": {}}, {"fsq_id": "57dc71e1cd1077642490974c", "categories": [{"id": 13000, "name": "Dining and Drinking", "icon": {"prefix": "https://ss3.4sqi.net/img/categories_v2/food/default_", "suffix": ".png"}}], "chains": [], "distance": 178, "geocodes": {"main": {"latitude": 48.298439, "longitude": 14.290632}}, "link": "/v3/places/57dc71e1cd1077642490974c", "location": {"address": "Rainerstr. 2- 4", "country": "AT", "cross_street": "", "formatted_address": "Rainerstr. 2- 4, 4020 Linz", "locality": "Linz", "postcode": "4020", "region": "Ober\u00f6sterreich"}, "name": "Cuisino - das Restaurant im Casino Linz", "related_places": {"parent": {"fsq_id": "4b991caff964a5201b6235e3", "name": "Casino Linz"}}, "timezone": "Europe/Vienna"}, {"fsq_id": "4d7a20d678be594162dbaf70", "categories": [{"id": 13000, "name": "Dining and Drinking", "icon": {"prefix": "https://ss3.4sqi.net/img/categories_v2/food/default_", "suffix": ".png"}}], "chains": [], "distance": 206, "geocodes": {"drop_off": {"latitude": 48.298029, "longitude": 14.289199}, "main": {"latitude": 48.298047, "longitude": 14.289349}, "roof": {"latitude": 48.298047, "longitude": 14.289349}}, "link": "/v3/places/4d7a20d678be594162dbaf70", "location": {"address": "Gesellenhausstr. 7", "country": "AT", "formatted_address": "Gesellenhausstr. 7, 4020 Linz", "locality": "Linz", "postcode": "4020", "region": "Ober\u00f6sterreich"}, "name": "Kolping Restaurant", "related_places": {}, "timezone": "Europe/Vienna"}, {"fsq_id": "4e4aa080e4cd4fd73006b21a", "categories": [{"id": 13074, "name": "Austrian Restaurant", "icon": {"prefix": "https://ss3.4sqi.net/img/categories_v2/food/austrian_", "suffix": ".png"}}], "chains": [], "distance": 245, "geocodes": {"main": {"latitude": 48.302212, "longitude": 14.289312}, "roof": {"latitude": 48.302212, "longitude": 14.289312}}, "link": "/v3/places/4e4aa080e4cd4fd73006b21a", "location": {"address": "Landstr. 30", "country": "AT", "formatted_address": "Landstr. 30, 4020 Linz", "locality": "Linz", "postcode": "4020", "region": "Ober\u00f6sterreich"}, "name": "Restaurant Klosterhof", "related_places": {"children": []}, "timezone": "Europe/Vienna"}, {"fsq_id": "99da97959b494c7f2be4018f", "categories": [{"id": 13065, "name": "Restaurant", "icon": {"prefix": "https://ss3.4sqi.net/img/categories_v2/food/default_", "suffix": ".png"}}], "chains": [], "distance": 253, "geocodes": {"main": {"latitude": 48.300896, "longitude": 14.292712}, "roof": {"latitude": 48.300896, "longitude": 14.292712}}, "link": "/v3/places/99da97959b494c7f2be4018f", "location": {"address": "Johann-Konrad-Vogel-Str. 11", "country": "AT", "formatted_address": "Johann-Konrad-Vogel-Str. 11, 4020 Linz", "locality": "Linz", "postcode": "4020", "region": "Ober\u00f6sterreich"}, "name": "Chizuru Japan Restaurant", "related_places": {}}, {"fsq_id": "af40ad67df4b4235e03cbe84", "categories": [{"id": 13003, "name": "Bar", "icon": {"prefix": "https://ss3.4sqi.net/img/categories_v2/nightlife/pub_", "suffix": ".png"}}, {"id": 13065, "name": "Restaurant", "icon": {"prefix": "https://ss3.4sqi.net/img/categories_v2/food/default_", "suffix": ".png"}}], "chains": [], "distance": 267, "geocodes": {"main": {"latitude": 48.300647, "longitude": 14.293069}, "roof": {"latitude": 48.300647, "longitude": 14.293069}}, "link": "/v3/places/af40ad67df4b4235e03cbe84", "location": {"address": "Hessenplatz 19", "country": "AT", "formatted_address": "Hessenplatz 19, 4020 Linz", "locality": "Linz", "postcode": "4020", "region": "Ober\u00f6sterreich"}, "name": "Kiernan's Kitty Irish Pub-Restaurant GmbH", "related_places": {}}, {"fsq_id": "4cc5f31b537c4814f14dbbd9", "categories": [{"id": 13003, "name": "Bar", "icon": {"prefix": "https://ss3.4sqi.net/img/categories_v2/nightlife/pub_", "suffix": ".png"}}, {"id": 13177, "name": "Greek Restaurant", "icon": {"prefix": "https://ss3.4sqi.net/img/categories_v2/food/greek_", "suffix": ".png"}}], "chains": [], "distance": 301, "geocodes": {"main": {"latitude": 48.299826, "longitude": 14.293702}, "roof": {"latitude": 48.299826, "longitude": 14.293702}}, "link": "/v3/places/4cc5f31b537c4814f14dbbd9", "location": {"address": "Hessenpl 14", "country": "AT", "formatted_address": "Hessenpl 14, 4020 Linz", "locality": "Linz", "postcode": "4020", "region": "Ober\u00f6sterreich"}, "name": "Restaurant Ankerkeller", "related_places": {}}, {"fsq_id": "919b73048b6b48a65520a668", "categories": [{"id": 13034, "name": "Caf\u00e9", "icon": {"prefix": "https://ss3.4sqi.net/img/categories_v2/food/cafe_", "suffix": ".png"}}, {"id": 13065, "name": "Restaurant", "icon": {"prefix": "https://ss3.4sqi.net/img/categories_v2/food/default_", "suffix": ".png"}}], "chains": [], "distance": 314, "geocodes": {"main": {"latitude": 48.302295, "longitude": 14.2919}, "roof": {"latitude": 48.302295, "longitude": 14.2919}}, "link": "/v3/places/919b73048b6b48a65520a668", "location": {"address": "Dametzstr. 39", "country": "AT", "formatted_address": "Dametzstr. 39, 4020 Linz", "locality": "Linz", "postcode": "4020", "region": "Ober\u00f6sterreich"}, "name": "Restaurant Zur Goldhaube - Griechenland gruesst Linz", "related_places": {}}], [{"fsq_id": "0fe3a0c3e4bb4b6eb4095551", "categories": [{"id": 13236, "name": "Italian Restaurant", "icon": {"prefix": "https://ss3.4sqi.net/img/categories_v2/food/italian_", "suffix": ".png"}}], "chains": [], "distance": 471, "geocodes": {"main": {"latitude": 48.298912, "longitude": 14.298646}, "roof": {"latitude": 48.298912, "longitude": 14.298646}}, "link": "/v3/places/0fe3a0c3e4bb4b6eb4095551", "location": {"address": "Schillerstr. 52", "country": "AT", "formatted_address": "Schillerstr. 52, 4020 Linz", "locality": "Linz", "postcode": "4020", "region": "Ober\u00f6sterreich"}, "name": "Balaton Restaurant", "related_places": {}}, {"fsq_id": "53d38436498ea18d3b36cf3d", "categories": [{"id": 13000, "name": "Dining and Drinking", "icon": {"prefix": "https://ss3.4sqi.net/img/categories_v2/food/default_", "suffix": ".png"}}], "chains": [], "distance": 549, "geocodes": {"main": {"latitude": 48.298071, "longitude": 14.300983}}, "link": "/v3/places/53d38436498ea18d3b36cf3d", "location": {"address": "Goethestr. 58", "country": "AT", "cross_street": "Goethestr. 58", "formatted_address": "Goethestr. 58 (Goethestr. 58), 4020 Linz", "locality": "Linz", "postcode": "4020", "region": "Ober\u00f6sterreich"}, "name": "XXXLutz Restaurant im Einrichtungshaus Linz", "related_places": {}, "timezone": "Europe/Vienna"}, {"fsq_id": "835b7b8609ab4bc06a4bfeba", "categories": [{"id": 11038, "name": "Event Service", "icon": {"prefix": "https://ss3.4sqi.net/img/categories_v2/event/default_", "suffix": ".png"}}], "chains": [], "distance": 588, "geocodes": {"main": {"latitude": 48.298947, "longitude": 14.305396}, "roof": {"latitude": 48.298947, "longitude": 14.305396}}, "link": "/v3/places/835b7b8609ab4bc06a4bfeba", "location": {"country": "AT", "formatted_address": "4020 Linz", "locality": "Linz", "postcode": "4020", "region": "Ober\u00f6sterreich"}, "name": "DoN restaurant & catering GmbH", "related_places": {}}, {"fsq_id": "af40ad67df4b4235e03cbe84", "categories": [{"id": 13003, "name": "Bar", "icon": {"prefix": "https://ss3.4sqi.net/img/categories_v2/nightlife/pub_", "suffix": ".png"}}, {"id": 13065, "name": "Restaurant", "icon": {"prefix": "https://ss3.4sqi.net/img/categories_v2/food/default_", "suffix": ".png"}}], "chains": [], "distance": 595, "geocodes": {"main": {"latitude": 48.300647, "longitude": 14.293069}, "roof": {"latitude": 48.300647, "longitude": 14.293069}}, "link": "/v3/places/af40ad67df4b4235e03cbe84", "location": {"address": "Hessenplatz 19", "country": "AT", "formatted_address": "Hessenplatz 19, 4020 Linz", "locality": "Linz", "postcode": "4020", "region": "Ober\u00f6sterreich"}, "name": "Kiernan's Kitty Irish Pub-Restaurant GmbH", "related_places": {}}, {"fsq_id": "4cc5f31b537c4814f14dbbd9", "categories": [{"id": 13003, "name": "Bar", "icon": {"prefix": "https://ss3.4sqi.net/img/categories_v2/nightlife/pub_", "suffix": ".png"}}, {"id": 13177, "name": "Greek Restaurant", "icon": {"prefix": "https://ss3.4sqi.net/img/categories_v2/food/greek_", "suffix": ".png"}}], "chains": [], "distance": 602, "geocodes": {"main": {"latitude": 48.299826, "longitude": 14.293702}, "roof": {"latitude": 48.299826, "longitude": 14.293702}}, "link": "/v3/places/4cc5f31b537c4814f14dbbd9", "location": {"address": "Hessenpl 14", "country": "AT", "formatted_address": "Hessenpl 14, 4020 Linz", "locality": "Linz", "postcode": "4020", "region": "Ober\u00f6sterreich"}, "name": "Restaurant Ankerkeller", "related_places": {}}, {"fsq_id": "99da97959b494c7f2be4018f", "categories": [{"id": 13065, "name": "Restaurant", "icon": {"prefix": "https://ss3.4sqi.net/img/categories_v2/food/default_", "suffix": ".png"}}], "chains": [], "distance": 608, "geocodes": {"main": {"latitude": 48.300896, "longitude": 14.292712}, "roof": {"latitude": 48.300896, "longitude": 14.292712}}, "link": "/v3/places/99da97959b494c7f2be4018f", "location": {"address": "Johann-Konrad-Vogel-Str. 11", "country": "AT", "formatted_address": "Johann-Konrad-Vogel-Str. 11, 4020 Linz", "locality": "Linz", "postcode": "4020", "region": "Ober\u00f6sterreich"}, "name": "Chizuru Japan Restaurant", "related_places": {}}, {"fsq_id": "919b73048b6b48a65520a668", "categories": [{"id": 13034, "name": "Caf\u00e9", "icon": {"prefix": "https://ss3.4sqi.net/img/categories_v2/food/cafe_", "suffix": ".png"}}, {"id": 13065, "name": "Restaurant", "icon": {"prefix": "https://ss3.4sqi.net/img/categories_v2/food/default_", "suffix": ".png"}}], "chains": [], "distance": 625, "geocodes": {"main": {"latitude": 48.302295, "longitude": 14.2919}, "roof": {"latitude": 48.302295, "longitude": 14.2919}}, "link": "/v3/places/919b73048b6b48a65520a668", "location": {"address": "Dametzstr. 39", "country": "AT", "formatted_address": "Dametzstr. 39, 4020 Linz", "locality": "Linz", "postcode": "4020", "region": "Ober\u00f6sterreich"}, "name": "Restaurant Zur Goldhaube - Griechenland gruesst Linz", "related_places": {}}, {"fsq_id": "5bba21633c858d002cf7d16a", "categories": [{"id": 13236, "name": "Italian Restaurant", "icon": {"prefix": "https://ss3.4sqi.net/img/categories_v2/food/italian_", "suffix": ".png"}}], "chains": [], "distance": 633, "geocodes": {"main": {"latitude": 48.302786, "longitude": 14.29109}, "roof": {"latitude": 48.302786, "longitude": 14.29109}}, "link": "/v3/places/5bba21633c858d002cf7d16a", "location": {"address": "Dametzstr. 38", "country": "AT", "cross_street": "", "formatted_address": "Dametzstr. 38, 4020 Linz", "locality": "Linz", "postcode": "4020", "region": "Ober\u00f6sterreich"}, "name": "BIGOLI Bar - Restaurant", "related_places": {}, "timezone": "Europe/Vienna"}, {"fsq_id": "57651e04498ec3d136fdee7c", "categories": [{"id": 13064, "name": "Pizzeria", "icon": {"prefix": "https://ss3.4sqi.net/img/categories_v2/food/pizza_", "suffix": ".png"}}, {"id": 13236, "name": "Italian Restaurant", "icon": {"prefix": "https://ss3.4sqi.net/img/categories_v2/food/italian_", "suffix": ".png"}}, {"id": 13303, "name": "Mexican Restaurant", "icon": {"prefix": "https://ss3.4sqi.net/img/categories_v2/food/mexican_", "suffix": ".png"}}], "chains": [], "distance": 667, "geocodes": {"main": {"latitude": 48.302786, "longitude": 14.29109}, "roof": {"latitude": 48.302786, "longitude": 14.29109}}, "link": "/v3/places/57651e04498ec3d136fdee7c", "location": {"address": "OK Platz 1a", "country": "AT", "cross_street": "", "formatted_address": "OK Platz 1a, 4020 Linz", "locality": "Linz", "postcode": "4020", "region": "Ober\u00f6sterreich"}, "name": "El Paso Restaurant Pizzeria", "related_places": {}, "timezone": "Europe/Vienna"}, {"fsq_id": "5239e2f4498e0583c9696881", "categories": [{"id": 13352, "name": "Thai Restaurant", "icon": {"prefix": "https://ss3.4sqi.net/img/categories_v2/food/thai_", "suffix": ".png"}}], "chains": [], "distance": 741, "geocodes": {"drop_off": {"latitude": 48.303922, "longitude": 14.29026}, "main": {"latitude": 48.304034, "longitude": 14.290433}, "roof": {"latitude": 48.304034, "longitude": 14.290433}}, "link": "/v3/places/5239e2f4498e0583c9696881", "location": {"address": "Marienstr. 11", "country": "AT", "cross_street": "", "formatted_address": "Marienstr. 11, 4020 Linz", "locality": "Linz", "postcode": "4020", "region": "Ober\u00f6sterreich"}, "name": "Coconut Thai Restaurant", "related_places": {}, "timezone": "Europe/Vienna"}], [{"fsq_id": "4e4aa080e4cd4fd73006b21a", "categories": [{"id": 13074, "name": "Austrian Restaurant", "icon": {"prefix": "https://ss3.4sqi.net/img/categories_v2/food/austrian_", "suffix": ".png"}}], "chains": [], "distance": 95, "geocodes": {"main": {"latitude": 48.302212, "longitude": 14.289312}, "roof": {"latitude": 48.302212, "longitude": 14.289312}}, "link": "/v3/places/4e4aa080e4cd4fd73006b21a", "location": {"address": "Landstr. 30", "country": "AT", "formatted_address": "Landstr. 30, 4020 Linz", "locality": "Linz", "postcode": "4020", "region": "Ober\u00f6sterreich"}, "name": "Restaurant Klosterhof", "related_places": {"children": []}, "timezone": "Europe/Vienna"}, {"fsq_id": "57651e04498ec3d136fdee7c", "categories": [{"id": 13064, "name": "Pizzeria", "icon": {"prefix": "https://ss3.4sqi.net/img/categories_v2/food/pizza_", "suffix": ".png"}}, {"id": 13236, "name": "Italian Restaurant", "icon": {"prefix": "https://ss3.4sqi.net/img/categories_v2/food/italian_", "suffix": ".png"}}, {"id": 13303, "name": "Mexican Restaurant", "icon": {"prefix": "https://ss3.4sqi.net/img/categories_v2/food/mexican_", "suffix": ".png"}}], "chains": [], "distance": 114, "geocodes": {"main": {"latitude": 48.302786, "longitude": 14.29109}, "roof": {"latitude": 48.302786, "longitude": 14.29109}}, "link": "/v3/places/57651e04498ec3d136fdee7c", "location": {"address": "OK Platz 1a", "country": "AT", "cross_street": "", "formatted_address": "OK Platz 1a, 4020 Linz", "locality": "Linz", "postcode": "4020", "region": "Ober\u00f6sterreich"}, "name": "El Paso Restaurant Pizzeria", "related_places": {}, "timezone": "Europe/Vienna"}, {"fsq_id": "5bba21633c858d002cf7d16a", "categories": [{"id": 13236, "name": "Italian Restaurant", "icon": {"prefix": "https://ss3.4sqi.net/img/categories_v2/food/italian_", "suffix": ".png"}}], "chains": [], "distance": 126, "geocodes": {"main": {"latitude": 48.302786, "longitude": 14.29109}, "roof": {"latitude": 48.302786, "longitude": 14.29109}}, "link": "/v3/places/5bba21633c858d002cf7d16a", "location": {"address": "Dametzstr. 38", "country": "AT", "cross_street": "", "formatted_address": "Dametzstr. 38, 4020 Linz", "locality": "Linz", "postcode": "4020", "region": "Ober\u00f6sterreich"}, "name": "BIGOLI Bar - Restaurant", "related_places": {}, "timezone": "Europe/Vienna"}, {"fsq_id": "919b73048b6b48a65520a668", "categories": [{"id": 13034, "name": "Caf\u00e9", "icon": {"prefix": "https://ss3.4sqi.net/img/categories_v2/food/cafe_", "suffix": ".png"}}, {"id": 13065, "name": "Restaurant", "icon": {"prefix": "https://ss3.4sqi.net/img/categories_v2/food/default_", "suffix": ".png"}}], "chains": [], "distance": 129, "geocodes": {"main": {"latitude": 48.302295, "longitude": 14.2919}, "roof": {"latitude": 48.302295, "longitude": 14.2919}}, "link": "/v3/places/919b73048b6b48a65520a668", "location": {"address": "Dametzstr. 39", "country": "AT", "formatted_address": "Dametzstr. 39, 4020 Linz", "locality": "Linz", "postcode": "4020", "region": "Ober\u00f6sterreich"}, "name": "Restaurant Zur Goldhaube - Griechenland gruesst Linz", "related_places": {}}, {"fsq_id": "5030083fd7204bd1d0dabbd8", "categories": [{"id": 12053, "name": "Language School", "icon": {"prefix": "https://ss3.4sqi.net/img/categories_v2/education/default_", "suffix": ".png"}}], "chains": [], "distance": 133, "geocodes": {"main": {"latitude": 48.302891, "longitude": 14.289029}, "roof": {"latitude": 48.302891, "longitude": 14.289029}}, "link": "/v3/places/5030083fd7204bd1d0dabbd8", "location": {"address": "Landstr. 24", "country": "AT", "formatted_address": "Landstr. 24, 4020 Linz", "locality": "Linz", "postcode": "4020", "region": "Ober\u00f6sterreich"}, "name": "Inlingua Sprachschule - International School of Languages", "related_places": {}}, {"fsq_id": "5239e2f4498e0583c9696881", "categories": [{"id": 13352, "name": "Thai Restaurant", "icon": {"prefix": "https://ss3.4sqi.net/img/categories_v2/food/thai_", "suffix": ".png"}}], "chains": [], "distance": 214, "geocodes": {"drop_off": {"latitude": 48.303922, "longitude": 14.29026}, "main": {"latitude": 48.304034, "longitude": 14.290433}, "roof": {"latitude": 48.304034, "longitude": 14.290433}}, "link": "/v3/places/5239e2f4498e0583c9696881", "location": {"address": "Marienstr. 11", "country": "AT", "cross_street": "", "formatted_address": "Marienstr. 11, 4020 Linz", "locality": "Linz", "postcode": "4020", "region": "Ober\u00f6sterreich"}, "name": "Coconut Thai Restaurant", "related_places": {}, "timezone": "Europe/Vienna"}, {"fsq_id": "99da97959b494c7f2be4018f", "categories": [{"id": 13065, "name": "Restaurant", "icon": {"prefix": "https://ss3.4sqi.net/img/categories_v2/food/default_", "suffix": ".png"}}], "chains": [], "distance": 220, "geocodes": {"main": {"latitude": 48.300896, "longitude": 14.292712}, "roof": {"latitude": 48.300896, "longitude": 14.292712}}, "link": "/v3/places/99da97959b494c7f2be4018f", "location": {"address": "Johann-Konrad-Vogel-Str. 11", "country": "AT", "formatted_address": "Johann-Konrad-Vogel-Str. 11, 4020 Linz", "locality": "Linz", "postcode": "4020", "region": "Ober\u00f6sterreich"}, "name": "Chizuru Japan Restaurant", "related_places": {}}, {"fsq_id": "12fa2330585b4d0639cd39a9", "categories": [{"id": 13065, "name": "Restaurant", "icon": {"prefix": "https://ss3.4sqi.net/img/categories_v2/food/default_", "suffix": ".png"}}], "chains": [], "distance": 224, "geocodes": {"drop_off": {"latitude": 48.303693, "longitude": 14.288494}, "main": {"latitude": 48.303606, "longitude": 14.288402}, "roof": {"latitude": 48.303606, "longitude": 14.288402}}, "link": "/v3/places/12fa2330585b4d0639cd39a9", "location": {"address": "Landstr. 12", "country": "AT", "formatted_address": "Landstr. 12, 4020 Linz", "locality": "Linz", "postcode": "4020", "region": "Ober\u00f6sterreich"}, "name": "Restaurant s'Ringelg'spiel - Platzl's Schmankerl Reigen", "related_places": {}}, {"fsq_id": "d3a37bdec1fd412d299808dd", "categories": [{"id": 13065, "name": "Restaurant", "icon": {"prefix": "https://ss3.4sqi.net/img/categories_v2/food/default_", "suffix": ".png"}}], "chains": [], "distance": 229, "geocodes": {"main": {"latitude": 48.303911, "longitude": 14.289119}, "roof": {"latitude": 48.303911, "longitude": 14.289119}}, "link": "/v3/places/d3a37bdec1fd412d299808dd", "location": {"address": "Landstr. 13", "country": "AT", "formatted_address": "Landstr. 13, 4020 Linz", "locality": "Linz", "postcode": "4020", "region": "Ober\u00f6sterreich"}, "name": "Sakura Japan-Restaurant", "related_places": {}}, {"fsq_id": "a75f002b95bd4d9b6a9349ad", "categories": [{"id": 13302, "name": "Mediterranean Restaurant", "icon": {"prefix": "https://ss3.4sqi.net/img/categories_v2/food/mediterranean_", "suffix": ".png"}}, {"id": 13356, "name": "Turkish Restaurant", "icon": {"prefix": "https://ss3.4sqi.net/img/categories_v2/food/turkish_", "suffix": ".png"}}], "chains": [], "distance": 256, "geocodes": {"drop_off": {"latitude": 48.299716, "longitude": 14.28993}, "main": {"latitude": 48.299681, "longitude": 14.289943}, "roof": {"latitude": 48.299681, "longitude": 14.289943}}, "link": "/v3/places/a75f002b95bd4d9b6a9349ad", "location": {"address": "Magazingasse 11", "country": "AT", "formatted_address": "Magazingasse 11, 4020 Linz", "locality": "Linz", "postcode": "4020", "region": "Ober\u00f6sterreich"}, "name": "Cafe Restaurant Antebia Mediterran", "related_places": {}}], [{"fsq_id": "919b73048b6b48a65520a668", "categories": [{"id": 13034, "name": "Caf\u00e9", "icon": {"prefix": "https://ss3.4sqi.net/img/categories_v2/food/cafe_", "suffix": ".png"}}, {"id": 13065, "name": "Restaurant", "icon": {"prefix": "https://ss3.4sqi.net/img/categories_v2/food/default_", "suffix": ".png"}}], "chains": [], "distance": 467, "geocodes": {"main": {"latitude": 48.302295, "longitude": 14.2919}, "roof": {"latitude": 48.302295, "longitude": 14.2919}}, "link": "/v3/places/919b73048b6b48a65520a668", "location": {"address": "Dametzstr. 39", "country": "AT", "formatted_address": "Dametzstr. 39, 4020 Linz", "locality": "Linz", "postcode": "4020", "region": "Ober\u00f6sterreich"}, "name": "Restaurant Zur Goldhaube - Griechenland gruesst Linz", "related_places": {}}, {"fsq_id": "5bba21633c858d002cf7d16a", "categories": [{"id": 13236, "name": "Italian Restaurant", "icon": {"prefix": "https://ss3.4sqi.net/img/categories_v2/food/italian_", "suffix": ".png"}}], "chains": [], "distance": 472, "geocodes": {"main": {"latitude": 48.302786, "longitude": 14.29109}, "roof": {"latitude": 48.302786, "longitude": 14.29109}}, "link": "/v3/places/5bba21633c858d002cf7d16a", "location": {"address": "Dametzstr. 38", "country": "AT", "cross_street": "", "formatted_address": "Dametzstr. 38, 4020 Linz", "locality": "Linz", "postcode": "4020", "region": "Ober\u00f6sterreich"}, "name": "BIGOLI Bar - Restaurant", "related_places": {}, "timezone": "Europe/Vienna"}, {"fsq_id": "af40ad67df4b4235e03cbe84", "categories": [{"id": 13003, "name": "Bar", "icon": {"prefix": "https://ss3.4sqi.net/img/categories_v2/nightlife/pub_", "suffix": ".png"}}, {"id": 13065, "name": "Restaurant", "icon": {"prefix": "https://ss3.4sqi.net/img/categories_v2/food/default_", "suffix": ".png"}}], "chains": [], "distance": 481, "geocodes": {"main": {"latitude": 48.300647, "longitude": 14.293069}, "roof": {"latitude": 48.300647, "longitude": 14.293069}}, "link": "/v3/places/af40ad67df4b4235e03cbe84", "location": {"address": "Hessenplatz 19", "country": "AT", "formatted_address": "Hessenplatz 19, 4020 Linz", "locality": "Linz", "postcode": "4020", "region": "Ober\u00f6sterreich"}, "name": "Kiernan's Kitty Irish Pub-Restaurant GmbH", "related_places": {}}, {"fsq_id": "99da97959b494c7f2be4018f", "categories": [{"id": 13065, "name": "Restaurant", "icon": {"prefix": "https://ss3.4sqi.net/img/categories_v2/food/default_", "suffix": ".png"}}], "chains": [], "distance": 484, "geocodes": {"main": {"latitude": 48.300896, "longitude": 14.292712}, "roof": {"latitude": 48.300896, "longitude": 14.292712}}, "link": "/v3/places/99da97959b494c7f2be4018f", "location": {"address": "Johann-Konrad-Vogel-Str. 11", "country": "AT", "formatted_address": "Johann-Konrad-Vogel-Str. 11, 4020 Linz", "locality": "Linz", "postcode": "4020", "region": "Ober\u00f6sterreich"}, "name": "Chizuru Japan Restaurant", "related_places": {}}, {"fsq_id": "57651e04498ec3d136fdee7c", "categories": [{"id": 13064, "name": "Pizzeria", "icon": {"prefix": "https://ss3.4sqi.net/img/categories_v2/food/pizza_", "suffix": ".png"}}, {"id": 13236, "name": "Italian Restaurant", "icon": {"prefix": "https://ss3.4sqi.net/img/categories_v2/food/italian_", "suffix": ".png"}}, {"id": 13303, "name": "Mexican Restaurant", "icon": {"prefix": "https://ss3.4sqi.net/img/categories_v2/food/mexican_", "suffix": ".png"}}], "chains": [], "distance": 500, "geocodes": {"main": {"latitude": 48.302786, "longitude": 14.29109}, "roof": {"latitude": 48.302786, "longitude": 14.29109}}, "link": "/v3/places/57651e04498ec3d136fdee7c", "location": {"address": "OK Platz 1a", "country": "AT", "cross_street": "", "formatted_address": "OK Platz 1a, 4020 Linz", "locality": "Linz", "postcode": "4020", "region": "Ober\u00f6sterreich"}, "name": "El Paso Restaurant Pizzeria", "related_places": {}, "timezone": "Europe/Vienna"}, {"fsq_id": "0fe3a0c3e4bb4b6eb4095551", "categories": [{"id": 13236, "name": "Italian Restaurant", "icon": {"prefix": "https://ss3.4sqi.net/img/categories_v2/food/italian_", "suffix": ".png"}}], "chains": [], "distance": 514, "geocodes": {"main": {"latitude": 48.298912, "longitude": 14.298646}, "roof": {"latitude": 48.298912, "longitude": 14.298646}}, "link": "/v3/places/0fe3a0c3e4bb4b6eb4095551", "location": {"address": "Schillerstr. 52", "country": "AT", "formatted_address": "Schillerstr. 52, 4020 Linz", "locality": "Linz", "postcode": "4020", "region": "Ober\u00f6sterreich"}, "name": "Balaton Restaurant", "related_places": {}}, {"fsq_id": "4cc5f31b537c4814f14dbbd9", "categories": [{"id": 13003, "name": "Bar", "icon": {"prefix": "https://ss3.4sqi.net/img/categories_v2/nightlife/pub_", "suffix": ".png"}}, {"id": 13177, "name": "Greek Restaurant", "icon": {"prefix": "https://ss3.4sqi.net/img/categories_v2/food/greek_", "suffix": ".png"}}], "chains": [], "distance": 516, "geocodes": {"main": {"latitude": 48.299826, "longitude": 14.293702}, "roof": {"latitude": 48.299826, "longitude": 14.293702}}, "link": "/v3/places/4cc5f31b537c4814f14dbbd9", "location": {"address": "Hessenpl 14", "country": "AT", "formatted_address": "Hessenpl 14, 4020 Linz", "locality": "Linz", "postcode": "4020", "region": "Ober\u00f6sterreich"}, "name": "Restaurant Ankerkeller", "related_places": {}}, {"fsq_id": "5239e2f4498e0583c9696881", "categories": [{"id": 13352, "name": "Thai Restaurant", "icon": {"prefix": "https://ss3.4sqi.net/img/categories_v2/food/thai_", "suffix": ".png"}}], "chains": [], "distance": 562, "geocodes": {"drop_off": {"latitude": 48.303922, "longitude": 14.29026}, "main": {"latitude": 48.304034, "longitude": 14.290433}, "roof": {"latitude": 48.304034, "longitude": 14.290433}}, "link": "/v3/places/5239e2f4498e0583c9696881", "location": {"address": "Marienstr. 11", "country": "AT", "cross_street": "", "formatted_address": "Marienstr. 11, 4020 Linz", "locality": "Linz", "postcode": "4020", "region": "Ober\u00f6sterreich"}, "name": "Coconut Thai Restaurant", "related_places": {}, "timezone": "Europe/Vienna"}, {"fsq_id": "cd6b7398db9f4d6faafc6693", "categories": [{"id": 13065, "name": "Restaurant", "icon": {"prefix": "https://ss3.4sqi.net/img/categories_v2/food/default_", "suffix": ".png"}}], "chains": [], "distance": 614, "geocodes": {"drop_off": {"latitude": 48.304537, "longitude": 14.289861}, "main": {"latitude": 48.30448, "longitude": 14.289772}, "roof": {"latitude": 48.30448, "longitude": 14.289772}}, "link": "/v3/places/cd6b7398db9f4d6faafc6693", "location": {"address": "Marienstr. 5", "country": "AT", "formatted_address": "Marienstr. 5, 4020 Linz", "locality": "Linz", "postcode": "4020", "region": "Ober\u00f6sterreich"}, "name": "Goldener Drachen China- Restaurant Dun Shu FONG", "related_places": {}}, {"fsq_id": "53d38436498ea18d3b36cf3d", "categories": [{"id": 13000, "name": "Dining and Drinking", "icon": {"prefix": "https://ss3.4sqi.net/img/categories_v2/food/default_", "suffix": ".png"}}], "chains": [], "distance": 643, "geocodes": {"main": {"latitude": 48.298071, "longitude": 14.300983}}, "link": "/v3/places/53d38436498ea18d3b36cf3d", "location": {"address": "Goethestr. 58", "country": "AT", "cross_street": "Goethestr. 58", "formatted_address": "Goethestr. 58 (Goethestr. 58), 4020 Linz", "locality": "Linz", "postcode": "4020", "region": "Ober\u00f6sterreich"}, "name": "XXXLutz Restaurant im Einrichtungshaus Linz", "related_places": {}, "timezone": "Europe/Vienna"}], [{"fsq_id": "8fca4722a2274823ba76f20e", "categories": [{"id": 13065, "name": "Restaurant", "icon": {"prefix": "https://ss3.4sqi.net/img/categories_v2/food/default_", "suffix": ".png"}}], "chains": [], "distance": 14, "geocodes": {"drop_off": {"latitude": 48.30642, "longitude": 14.286043}, "main": {"latitude": 48.306419, "longitude": 14.286042}}, "link": "/v3/places/8fca4722a2274823ba76f20e", "location": {"address": "Hauptplatz 12", "country": "AT", "formatted_address": "Hauptplatz 12, 4020 Linz", "locality": "Linz", "postcode": "4020", "region": "Ober\u00f6sterreich"}, "name": "J. Leibetseder Restaurant- und BarbetriebsgmbH", "related_places": {}}, {"fsq_id": "4bf6cb6eb1a7a59319b9d65b", "categories": [{"id": 13099, "name": "Chinese Restaurant", "icon": {"prefix": "https://ss3.4sqi.net/img/categories_v2/food/asian_", "suffix": ".png"}}], "chains": [], "distance": 40, "geocodes": {"main": {"latitude": 48.30645, "longitude": 14.286628}, "roof": {"latitude": 48.30645, "longitude": 14.286628}}, "link": "/v3/places/4bf6cb6eb1a7a59319b9d65b", "location": {"address": "Hauptplatz 4", "country": "AT", "cross_street": "", "formatted_address": "Hauptplatz 4, 4020 Linz", "locality": "Linz", "postcode": "4020", "region": "Ober\u00f6sterreich"}, "name": "China-Restaurant Kim San", "related_places": {}, "timezone": "Europe/Vienna"}, {"fsq_id": "1a9ea5b5ffe1466d2576e343", "categories": [{"id": 13065, "name": "Restaurant", "icon": {"prefix": "https://ss3.4sqi.net/img/categories_v2/food/default_", "suffix": ".png"}}], "chains": [], "distance": 54, "geocodes": {"main": {"latitude": 48.306501, "longitude": 14.286576}, "roof": {"latitude": 48.306501, "longitude": 14.286576}}, "link": "/v3/places/1a9ea5b5ffe1466d2576e343", "location": {"country": "AT", "formatted_address": "4020 Linz", "locality": "Linz", "postcode": "4020", "region": "Ober\u00f6sterreich"}, "name": "Cafe Paradiso, Das vegetarische Restaurant Bernhart + Braun", "related_places": {}}, {"fsq_id": "c1893a2a43574d511fc27310", "categories": [{"id": 19015, "name": "Inn", "icon": {"prefix": "https://ss3.4sqi.net/img/categories_v2/travel/hotel_", "suffix": ".png"}}], "chains": [], "distance": 64, "geocodes": {"main": {"latitude": 48.306455, "longitude": 14.286725}, "roof": {"latitude": 48.306455, "longitude": 14.286725}}, "link": "/v3/places/c1893a2a43574d511fc27310", "location": {"address": "Hauptplatz 3", "country": "AT", "formatted_address": "Hauptplatz 3, 4020 Linz", "locality": "Linz", "postcode": "4020", "region": "Ober\u00f6sterreich"}, "name": "Blinis Cafe Restaurant Iris Fabiane Gastronomiebetriebs GmbH & Co", "related_places": {}}, {"fsq_id": "4b5b4dfff964a52026f328e3", "categories": [{"id": 13000, "name": "Dining and Drinking", "icon": {"prefix": "https://ss3.4sqi.net/img/categories_v2/food/default_", "suffix": ".png"}}], "chains": [], "distance": 74, "geocodes": {"main": {"latitude": 48.30645, "longitude": 14.286628}, "roof": {"latitude": 48.30645, "longitude": 14.286628}}, "link": "/v3/places/4b5b4dfff964a52026f328e3", "location": {"address": "Hauptplatz 4", "country": "AT", "formatted_address": "Hauptplatz 4, 4020 Linz", "locality": "Linz", "postcode": "4020", "region": "Ober\u00f6sterreich"}, "name": "Restaurant-Cafe Alte Welt", "related_places": {}, "timezone": "Europe/Vienna"}, {"fsq_id": "149f93b223004f839f3837b2", "categories": [{"id": 13065, "name": "Restaurant", "icon": {"prefix": "https://ss3.4sqi.net/img/categories_v2/food/default_", "suffix": ".png"}}], "chains": [], "distance": 138, "geocodes": {"main": {"latitude": 48.30708, "longitude": 14.287424}, "roof": {"latitude": 48.30708, "longitude": 14.287424}}, "link": "/v3/places/149f93b223004f839f3837b2", "location": {"address": "Adalbert-Stifter-Platz 2", "country": "AT", "formatted_address": "Adalbert-Stifter-Platz 2, 4020 Linz", "locality": "Linz", "postcode": "4020", "region": "Ober\u00f6sterreich"}, "name": "Restaurant II Leonetto", "related_places": {}}, {"fsq_id": "ee8e42b4f3d94be502eaa486", "categories": [{"id": 13065, "name": "Restaurant", "icon": {"prefix": "https://ss3.4sqi.net/img/categories_v2/food/default_", "suffix": ".png"}}], "chains": [], "distance": 145, "geocodes": {"main": {"latitude": 48.307186, "longitude": 14.287418}, "roof": {"latitude": 48.307186, "longitude": 14.287418}}, "link": "/v3/places/ee8e42b4f3d94be502eaa486", "location": {"address": "Adalbert-Stifter-Platz 2", "country": "AT", "formatted_address": "Adalbert-Stifter-Platz 2, 4020 Linz", "locality": "Linz", "postcode": "4020", "region": "Ober\u00f6sterreich"}, "name": "Yoko Sushi-Restaurant", "related_places": {}}, {"fsq_id": "4e4bf5621838fe3c818e780e", "categories": [], "chains": [], "distance": 150, "geocodes": {"main": {"latitude": 48.305158, "longitude": 14.285047}}, "link": "/v3/places/4e4bf5621838fe3c818e780e", "location": {"country": "AT", "cross_street": "", "formatted_address": "Linz", "locality": "Linz", "region": "Ober\u00f6sterreich"}, "name": "Restaurant Bar Absolut!on", "related_places": {}, "timezone": "Europe/Vienna"}, {"fsq_id": "4b953aeef964a5209c9634e3", "categories": [{"id": 13099, "name": "Chinese Restaurant", "icon": {"prefix": "https://ss3.4sqi.net/img/categories_v2/food/asian_", "suffix": ".png"}}, {"id": 13352, "name": "Thai Restaurant", "icon": {"prefix": "https://ss3.4sqi.net/img/categories_v2/food/thai_", "suffix": ".png"}}, {"id": 13379, "name": "Vietnamese Restaurant", "icon": {"prefix": "https://ss3.4sqi.net/img/categories_v2/food/vietnamese_", "suffix": ".png"}}], "chains": [], "distance": 151, "geocodes": {"main": {"latitude": 48.307135, "longitude": 14.28747}, "roof": {"latitude": 48.307135, "longitude": 14.28747}}, "link": "/v3/places/4b953aeef964a5209c9634e3", "location": {"address": "Adalbert-Stifter-Platz 2", "country": "AT", "formatted_address": "Adalbert-Stifter-Platz 2, 4020 Linz", "locality": "Linz", "postcode": "4020", "region": "Ober\u00f6sterreich"}, "name": "China- Restaurant Goldene Pagode", "related_places": {}, "timezone": "Europe/Vienna"},